NAME	ALTERNATIVENAMES	SHORTDESCRIPTION	DATEOFBIRTH	PLACEOFBIRTH	DATEOFDEATH	PLACEOFDEATH	LATITUDE	LONGITUDE
Álvarez de Toledo, Pedro	 	Spanish viceroy	July 13, 1484	Madrid, Spain	February 21, 1553	Florence, Italy	40.46179	-3.56718
Árni Magnússon	Arne Magnusson, Magnussen (Danish versions of name)	Icelandic scholar and manuscript collector	13 November 1663	Kvennabrekka, Dalasýsla, Iceland	7 January 1730	Copenhagen, Denmark	65.25	-22
Ælfheah	Alphege	Bishop of Winchester; Archbishop of Canterbury; Saint	954	Weston, Bath|Weston, Somerset, England	19 April 1012	Greenwich, Kent	43.84049	-104.56783
Æthelred II	Æthelred the Unready	King of England	968	Wessex, England	23 April 1016	London, England	-42.23	146.12
Æthelstan	 	King of England	895	Wessex, England|Wessex, England	939	Gloucester	-42.23	146.12
Æthelwold	 	Bishop of Winchester; Abbot of Abingdon	909	Winchester	1 August, 984	Beddington, Surrey	-20.43092	27.98273
Ōkubo Tadataka	 	Japanese warrior	1560	Okazaki, Aichi|Kamiwada, Mikawa Province	April 2, 1639		34.95	137.16667
Ōkubo Tadayo	 	Daimyo	1532	Okazaki, Aichi, Japan	October 28, 1594	Odawara, Kanagawa, Japan	34.95	137.16667
Πτολεμαῖος, Κλαύδιος	Ptolemaeus, Claudius; Ptolemy	geographer, astronomer and astrologer	90	probably Egypt	168	Alexandria|Alexandria, Egypt	42.5	1.48333
‘Ammār ibn Yāsir	 	Companion of the Prophet Mohammmed	570	Mecca	657	Siffin	41.38719	-80.76172
Clement VII, Pope	de' Medici, Giulio (birth name); de' Medici, Giulio di Giuliano (full name); Clemente VII, papa (Italian); Clemens VII, Papa (Latin)	Pope	26 May 1478	Florence, Republic of Florence	25 September 1534	Rome, Papal States	-21.87344	30.89136
Aa, Petrus van der	Vanderanus	Flemish jurist	1530	Leuven, Belgium	1594		50.87959	4.70093
Aa, Pieter van der	 	Dutch publisher	1659	Mechelen, Belgium	1733		51.0245	4.48817
Aachen, Hans von	Achen, Johann von	Mannerism|Mannerist Painting|painter	1552	Cologne, Germany	March 4, 1615	Prague, Czech Republic	45.58138	9.94136
Aaron ben Moses ben Asher	 	Jewish Scribe who perfected the written language	10th Century	Tiberias	960		-42.42	147.35001
Aarssens, Francis Van	 	Dutch diplomat and statesman	27 September 1572	Brussels	27 December 1641	The Hague	50.8348	4.33653
Abû Hayyân Al Gharnâti	 	Muslim scholar	1256	Granada	1344		-23.53902	-50.59682
Abakh Khoja	 	Religious and political leader	1626	Kumul, Xinjiang	1694		-5.78474	134.79261
Abate, Adamo	 	Abbot	990	Petazio	 		42.5	1.48333
Abauzit, Firmin	 	Physician, theologian and philosopher	1679	Uzès	1767	Geneva	44.01362	4.41529
Abbas 01 Of Persia	 	Shah of Iran	27 January 1571	Herat (modern Afghanistan)	19 January 1629	Mazandaran (Iran)	42.5	1.48333
Abbas ibn Ali	 	Abul Fadhl	0647-05-15	Madinah|Madīnah	0680-10-10	Karbalā	32.10015	20.06906
Abbot, George	 	Bishop	19 October 1562	Guildford|Guildford, Surrey	5 August 1633	Croydon, London	-18.21185	141.89124
Abd Allah ibn al-Zubayr	 	Arab sahabi	624	Medina, Arabia	692	Mecca	34.83333	15.16667
Abdul-Haqq Dehlavi	 	Islamic scholar	1551	Delhi, India	1642	Delhi, India	47.02318	-103.85681
Abe Masatsugu	 	Japanese daimyo	1569	Mikawa Province, Japan	December 10, 1647	Osaka, Japan	41.5	135
Abe Tadaaki	 	Daimyo	1602	Edo, Japan	1671		7.34506	6.11489
Abe no Seimei	 	Japanese painter	921	Abemonju-in Temple, Sakurai, Nara, Japan	1005	Japan	40.80838	140.36944
Abel, John	 	English architect	1578	Sarnesfield, Herefordshire	1675		52.08333	-2.75
Abelin, Johann Philipp	 	German chronicler	career straddled the 16th and 17th centuries	probably at Strasbourg	1634-1637	Strasbourg	42.5	1.48333
Abensperg und Traun, Otto Ferdinand von	Abensperg und Traun, Graf Otto Ferdinand von	Austrian Field Marshal	August 27, 1677	Sopron|Ödenburg	February 18, 1748	Sibiu|Hermannstadt	47.68501	16.59049
Abercromby, Patrick	 	Antiquarian, physician	1656	Forfar, Scotland	 		-25.76758	28.62299
Abhari	 	Philosopher, astronomer, astrologer, mathematician	1200	Mosul, Iraq	1265	Shabestar, Iran or Azerbaijan	41.44476	46.57224
Abrabanel, Isaac	 	Portuguese philosopher	1437	Lisbon, Portugal	1508	Venice, Italy	38.76529	-9.09518
Abraham Hiyya Nasi	 	Medieval Jewish astronomer	1070	Barcelona	1136	Provence	9.45588	-64.82928
Abschatz, Hans Erasmus Assmann Freiherr von	 	Statesman, poet	4 February 1646	Breslau	22 April 1699	Liegnitz	42.5	1.58333
Abu Al-Ghazi Bahadur	 	Khan of Khiva, historian	August 24, 1603	Urgench, Khanate of Khiva	1663	Khiva	41.58427	60.64171
Abu Ayyub Al-Ansari	 	Muhammad's Ansar	576	Medina, Arabian Peninsula|Arabia	674	Istanbul|Constantinople, Byzantine Empire	34.83333	15.16667
Abu Hanifa	 	Founder of Sunni Hanafi	699	Kufa, Iraq	767	Baghdad, Iraq	41.56426	47.37845
Abu Mansur Mauhub al-Jawaliqi	 	Arab grammarian	1073	Baghdad, Iraq	1145		33.34058	44.40088
Abu Ubaidah Ibn Al-Jarrah	 	Sahabah of Muhammad	581	Mecca, Arabian Peninsula|Arabia	639	Jordan Valley (Middle East)|Jordan Valley, Jordan.	41.38719	-80.76172
Abu Ubayd Al-Juzjani	 	Medieval Persian physician	980	Jowzjan Province, Afghanistan	1037		15.33488	44.18876
Abul Hasan Qutb Shah	 	Sultan of Qutb Shahi dynasty	1600	ARUANGBAD	1699	Daulatabad, Maharashtra|Daulatabad, Aurangabad Maharashtra|Aurangabad	42.5	1.48333
Abulafia, Abraham	 	Philosopher, writer	1240	Zaragoza, Spain	1290s	Comino, Malta	13.58944	-89.28889
Accolti	 	Poet	September 11, 1465	Arezzo	March 1, 1536		42.70559	12.61883
Achaeus of Eretria	 	Greek playwright	484 BC	Euboea	 		38.5	24
Acharya, Vallabha	 	Philosopher	1479	Champaranya, India	1531	Hanuman Ghat, Kashi Asura Vyamoha Leela	-26.21891	28.16039
Achery, Luc	Achery, Jean-Luc d’	Benedictine scholar, librarian, bibliographer	1609	Saint-Quentin, Aisne	29 April 1685	Paris	48.77186	2.01891
Achtschellinck, Lucas	 	painter	bapt. 16 January 1626	Brussels	by 12 May 1699		50.8348	4.33653
Acidalius, Valens	Havekenthal, Valens; Hauckenthal, Valens	German humanist	1567	Wittstock 	25 May 1595	Nysa, Poland|Neisse	53.16118	12.48287
Acuna y Manrique, Juan de	 	Viceroy of New Spain	1658-00-00	Lima, Peru	March 17, 1734	Mexico City, Mexico	-12.04318	-77.02824
Adalbert Of Prague	 	Czech Roman Catholic saint	956	Libice nad Cidlinou, Bohemia	997	Truso (Elbląg) or Kaliningrad Oblast	41.4135	-96.85072
Adam de la Halle	Adam le Bossou	French-born trouvère, poet and musician	1237?	Arras	1288		41.73583	20.32417
Adam, Salimbene di	Salimbene of Parma	Franciscan friar and historian	1221	Commune of Parma, Holy Roman Empire	1290	Montefalcone	42.5	1.48333
Adam, William	 	Architect	October 1689	Linktown of Abbotshall	24 June 1748		42.5	1.48333
Adams, Fitzherbert	 	Academic administrator, clergyman, and benefactor	1651	England	17 June 1719	England	38	-61
Adams, John	 	English Priest and martyr	1543	Winterborne St Martin, Dorset, England	8 October 1586	Tyburn, London, England	64.23378	-76.54372
Adams, Thomas, Sir	 	Lord Mayor of the City of London|Lord Mayor and Member of Parliament for the City of London	1586	Wem, Shropshire	24 February 1667/1668		-41.15	146.16
Adams, William	 	First Englishman in Japan; sailor	24 September 1564	Gillingham, Medway|Gillingham – then in Kent, England	16 May 1620	Hirado, Kyūshū, Japan	51.38669	0.55043
Adamson, Patrick	 	Divine, Archbishop of St Andrews	1537	Perth, Scotland|Perth	1592	St Andrews	-31.95872	115.87109
Addison, Joseph	 	essayist, poet, playwright, politician	1 May 1672	Milston, Wiltshire	17 June 1719	London	-18.70794	31.1258
Adelaide Of Italy	 	Holy Roman Empress	931	Burgundy (region)|Burgundy, France	December 16, 0999	Selz Abbey|Seltz, Alsace	-20.40451	115.5377
Adeler, Cort	 	Seaman	16 December 1622	Brevik, Norway	5 November 1675		58.43333	14.41667
Adelham, Placid	Adelham, John	Monk, priest, martyr	17th century	Wiltshire, Kingdom of Great Britain	1680s	Newgate, London, Kingdom of Great Britain	-18.70794	31.1258
Adelin, William	 	Duke of Normandy	5 August 1103	Winchester, Hampshire	25 November 1120	near Barfleur, Normandy	-20.43092	27.98273
Adityawarman	 	Indonesian monarch	1294	Trowulan, Majapahit	1375	Batusangkar	-7.5475	112.3888
Adolf William Of Saxe-Eisenach, Duke	 	Duke of Saxe-Eisenach	15 May 1632	Weimar	21 November 1668	Eisenach	-31.885	115.9292
Adolphus Frederick II of Mecklenburg, Duke	Adolf Friedrich II., Herzog zu Mecklenburg (German)	First Duke of Mecklenburg-Strelitz (1701-1708)	19 October 1658	Grabow	12 May 1708		53.2707	11.5659
Adomnan	 	Hagiographer, statesman, clerical lawyer	628	Probably County Donegal, Ireland	704	Iona, Scotland	55	-12.66667
Adrian 06	 	Pope	2 March 1459	Utrecht (city)|Utrecht, Bishopric of Utrecht, Holy Roman Empire	14 September 1523	Rome, Papal States	-27.66667	30.31667
Adrian I	 	Nobleman	700	Rome, Italy	795	?	41.89474	12.4839
Adrian II	 	Pope Pope	792	Rome, Italy	872	???	41.89474	12.4839
Adrian V	 	Pope	between 1210 and 1220	Genoa, Republic of Genoa, Holy Roman Empire	1276	Viterbo, Papal States, Holy Roman Empire	40.17438	-82.89748
Adud Al-Daula	 	Buyid Amir	936	Isfahan, Iran	983	Baghdad (present day Iraq)	32.75084	51.86127
Aebelholt, William Of	 	Danish Roman Catholic saint	1125	Paris, France	1203	Denmark	48.86694	2.78207
Aegidius Of Viterbo	 	Italian Augustinian friar, bishop and cardinal	1470	Viterbo, Papal States	12 November 1532	Rome, Papal States	-24.75333	33.67278
Aelred Of Rievaulx	 	English writer, abbot, and saint	1110	Hexham, Northumberland, England	12 January 1167	Rievaulx, North Riding of Yorkshire, England	-32.8402	151.6929
Aemilianus	 	Roman Emporer	207	Girba, Africa (Roman province)|Africa	253	near Spoletium, Italia (Roman Empire)|Italia (aged 40 or 46)	36.86877	10.33256
Aertsen, Pieter	Lange Pier	painter	1508	Amsterdam	1575	Amsterdam	52.3688	4.89017
Aertsz, Richard	Aertsz, Rijckaert	painter	1482	Wijk aan Zee	May 1577	Antwerp	42.5	1.58333
Aeschines	 	Attic orator; statesman	389 BC	Athens	 	Samos	37.98888	23.73604
Aethelthryth	 	Abbess of Ely	636	Exning, Suffolk	June 23, 0679	Ely, Cambridgeshire|Ely, Cambridgeshire	52.26642	0.37439
Aethelwulf Of Wessex	 	King of Wessex	795	Aachen, Germany	858	Stamridge, Wessex	50.91166	5.77014
Afonso 02 Of Portugal	 	Portuguese monarch	23 April 1185	Coimbra, Kingdom of Portugal	25 March 1223	Coimbra, Kingdom of Portugal	-23.59538	-50.14227
Afonso 05 Of Portugal	 	King of Portugal and the Algarves	15 January 1432	Sintra National Palace, Sintra, Kingdom of Portugal	28 August 1481	Lisbon, Kingdom of Portugal	38.79705	-9.39056
Afonso 06 Of Portugal	 	King of Portugal and the Algarves	21 August 1643	Ribeira Palace, Lisbon, Kingdom of Portugal	12 September 1683	Sintra National Palace|Royal Palace of Sintra, Sintra, Kingdom of Portugal	38.76529	-9.09518
Afonso 1 Of Braganza, Duke	 	1st Duke of Braganza	10 August 1377	Fronteira Municipality|Fronteira, Cabeço de Vide	15 December 1461	Chaves Municipality, Portugal|Chaves	-24.9714	-48.2867
Afonso I	Afonso Henriques	King of Portugal	25 July 1109	Coimbra, Second County of Portugal, Kingdom of León	6 December 1185	Coimbra, Portugal	-23.59538	-50.14227
Afonso III of Portugal	 	King of Portugal	5 May 1210	Coimbra, Kingdom of Portugal	16 February 1279	Alcobaça (Portugal)|Alcobaça, Kingdom of Portugal	5 May 1210	16 February 1279
Afonso IV of Portugal	 	King of Portugal and the Algarve	8 February 1291	Lisbon, Kingdom of Portugal	28 May 1357	Lisbon, Kingdom of Portugal	38.76529	-9.09518
Afonso, Infante Of Portugal, Cardinal	 	Roman Catholic cardinal	1509	Évora, Kingdom of Portugal	1540		38.56667	-7.9
Afonso, Infante, Lord Of Portalegre	 	Portuguese infante	8 February 1263	Lisbon	2 November 1312	Lisbon	38.76529	-9.09518
Africanus, Joannes Leo	al-Wazzan al-Fasi, Hasan bin Muhammed	Moroccan author	1488?	Granada, Spain	1554?	Tunis, Tunisian Republic	-23.53902	-50.59682
Agarde, Arthur	 	English antiquary	1540	Foston, Derbyshire	1615		52.96667	-0.71667
Agatho	 	Pope	6th century	Sicily, Byzantine Empire	10 January 0681	Rome, Byzantine Empire	37.33333	11.33333
Agazzari, Agostino	 	Italian composer and music theorist	2 December 1578	Siena	10 April 1640	Siena	-34.89496	138.53334
Ager, Nikolaus	 	French botanist	1568	Alsace	1634		-28.10212	21.60397
Agerre, Pedro	 	Basque writer	1556	Urdazubi/Urdax	8 April 1644	Sare	42.5	1.58333
Agnellus Of Pisa	 	Friar Minor	1195	Pisa, Republic of Florence	May 7, 1236	Oxford, England	53.22982	21.87245
Agnes Of Bohemia	 	Bohemian princess and Poor Clare nun	20 June 1211	Prague, Bohemia	2 March 1282	Prague, Bohemia	50.10083	14.26
Agnes Of Montepulciano	Segni, Agnese	Dominican nun, wonderworker and saint	28 January 1268	Montepulciano, Papal States	20 April 1317	Montepulciano, Papal States	43.10174	11.78684
Agnes of Assisi	Scifi, Caterina	Poor Clare abbess	1197/98	Assisi, Italy	16 November 1253	Assisi, Italy	-19.49091	-55.00431
Agnes	 	Christian martyr saint	291	Rome, Roman Empire	304	Rome, Roman Empire	41.89474	12.4839
Agobard	Agobard of Lyon	Spanish saint	779	Spain	840		17.1859	-89.01033
Agostini, Leonardo	 	Italian antiquary	1593	Grosseto, near Siena	1669		42.77142	11.10794
Agostini, Lodovico	 	Italian composer, singer	1534	Ferrara, Italy	20 September 1590	Ferrara, Italy	27.33431	-100.15656
Agostino, Paolo	Agostini, Paolo; Augustinus, Paolo	Italian composer and organist	1583	Vallerano	1629		42.38403	12.26347
Agricola, Georg	 	Scholar, scientist	24 March 1494	Glauchau	21 November 1555	Chemnitz	50.82047	12.54278
Agricola, Martin	 	German composer and music theorist	6 January 1486	Swiebodzin|Schwiebus in Lower Silesia	10 June 1556		42.5	1.58333
Agrippa, Heinrich Cornelius	 	Magician, occult writer, theologian, astrologer, alchemist	September 14, 1486	Cologne, Germany	February 18, 1535	Grenoble, France	45.58138	9.94136
Aguilon, Francois D'	Francois d'Aguillon	architect, mathematician, physicist	4 January 1567	Brussels	20 March 1617	Tournai	50.8348	4.33653
Ahmad Al-Mansur	 	Sultan of the Saadi dynasty	1549	Fes, Morocco	25 August 1603	Outskirts of Fes, Morocco	50.14318	35.96076
Ahmad Ibn Hanbal	 	Scholar, theologian	780	Baghdad, Iraq&amp;nbsp;or Merv, Greater Khorasan|Khorasan (now Turkmenistan)	855	Baghdad, Iraq	33.34058	44.40088
Ahmed Pasha, Hafiz	 	Ottoman Grand Vizier	1564	Plovdiv	10 February 1632	Istanbul	42.06781	24.85083
Ahmed Resmi Efendi	 	Ottoman historian	1694	Rethymon, Crete, Greece, Ottoman Empire	1783	Constantinople, Ottoman empire	36	25
Ahmose I	Amosis I	Pharaoh	1560 BC ?	Likely Thebes, Egypt|Thebes	1525 BC ?	Likely buried at Abydos, Egypt|Abydos and later moved to Deir el-Bahri	-19.55048	29.11418
Ahmose, son of Ebana	Ahmose, son of Ibana; Ahmose, son of Abana	Ancient soldier and warrior	16th century BC	Nekheb	16th century BC or 15th century BC	Nekheb	42.5	1.58333
Aholelei, Tevita	Esau	United States Marine	4/21/69	Kingdom of Tonga	 		-20	-175
Aichel, Jan Blažej Santini	 	Czech architect	1677-2-3	Prague 	1723-12-7	Prague 	50.10083	14.26
Aihara, Miki	 	Japanese manga artist	June 10	Shizuoka, Japan	 		34.79611	138.18944
Ailly, Pierre	 	Catholic cardinal	1351	Compiègne	9 August 1420	Avignon	49.41794	2.82606
Aitzema, Lieuwe van	Leo van Aitzema (Dutch name); Leo ab Aitzema (Latinized name)	Dutch diplomat, writer, philanderer and spy	19 November 1600	Dokkum, Frisia, The Netherlands,	23 February 1669	The Hague, The Netherlands	53.32224	5.99698
Akhtar, Pav	 	International Trade Union Director	22.11.197X	Leeds	Living	Living	43.97868	-95.8839
Akita Sanesue	 	Daimyo	1576	Dewa Province, Japan	January 11, 1660	Asama, Ise Province|Asama, Ise Province	41.5	135
Akiyama Nobutomo	 	Samurai	1531	Tsutsujigasaki Hall, Kai Province	1575	Mino Province	42.5	1.48333
Al-Baqir, Muhammad	{Allehis Salam}	Twelver imam	676	Madinah|Madīnah	743	Medina, Umayyad Empire	32.10015	20.06906
Al-Dhahabi	 	Historian of Islam	1274	Damascus	1348		33.5102	36.29128
Al-Ghazi, Ahmad Ibn Ibrihim	Ahmed Gurey; Ahmed Gragn	Somalian military and religious leader	1507	Zeila or Hubat	February 21, 1543	Battle of Wayna Daga|Wayna Daga	42.5	1.48333
Al-Hadi, Ali	 	Imam	828	Medina	868		34.83333	15.16667
Al-Hakim Bi-Amr Allah	 	Caliph	985	Cairo	1021		30.1164	30.9154
Al-Jāḥiẓ	 	Arabic writer 	776	Basra, Abbasid Caliphate	 	Basra, Abbasid Caliphate	2.2991	45.2636
Al-Khansa	 	Poet	575	Najd	 	Najd	14.27106	44.34948
Al-Mahdi, Muhammad	 	Mahdī	869	Samarra	 		42.5	1.58333
Al-Maqrizi	 	Historian	1364	Cairo, Egypt	1442		30.1164	30.9154
Al-Mutanabbi	 	Arab Iraqi poet	915	Kufah, Iraq	965		15.32422	44.19623
Al-Nasai	Aḥmad ibn Shu`ayb ibn Alī ibn Sīnān Abū `Abd ar-Raḥmān al-Nasā'ī (full name)	Muslim scholar	214 AH (c. 829 CE)	Turkmenistan	915		37.81454	65.5394
Al-Nasir Muhammad	 	Sultan of Egypt	1285	Cairo, Egypt	1341	Cairo, Egypt	30.1164	30.9154
Al-Rahman I, Abd	 	Royalty	731	near Damascus	788	Córdoba, Spain|Córdoba	42.5	1.48333
Al-Ridha, Ali	 	Shia Imam	765	Medina	818		34.83333	15.16667
Al-Sadiq, Jafar	 	Muslim religious person	702	Medina	765	Medina, Umayyad Empire	34.83333	15.16667
Al-Tirmidhi	 	Hadith scholar	824	Termez, Abbasid Caliphate	892	Termez, Samanid Empire	37.28667	67.31
Alabaster, William	 	English poet, playwright, and religious writer	January 27, 1567	Hadleigh, Suffolk	1640		-29.58882	150.45325
Alacoque, Marguerite Marie	 	Nun, mystic and saint	22 July 1647	Verosvres|L'Hautecour, Duchy of Burgundy, Kingdom of France	17 October 1690	Paray-le-Monial, Duchy of Burgundy, Kingdom of France	42.5	1.58333
Alamgir Ii	 	Mughal Emperor	6 June 1699	Multan, Mughal Empire	29 November 1759	Kotla Fateh Shah, Mughal Empire	56.40867	51.73631
Alaric 01	 	King of the Visigoths	370	Peuce Island, Dobruja	410	Cosenza, Calabria	44	28
Alauddin Sabir Kaliyari	 	Sufi saint	A.D.1196	(Herat Afghanisthan )	A.D 1291,13 RABI AL AWAAL 690 HIJRI	Kaliyar, Roorkee, India	42.5	1.48333
Albani, Alessandro	 	Collector of antiquities, Roman Catholic cardinal	October 15, 1692	Urbino, Italy	December 11, 1779	Rome, Italy	43.72976	12.63555
Albani, Francesco	 	Baroque painter	18 August 1578	Bologna	4 October 1660		44.50657	11.35041
Alberoni, Giulio	 	Italy|Italian Cardinal (Catholicism)|cardinal, Politician|statesman	1664-05-30	Fiorenzuola d'Arda, Italy	1752-06-26		44.92206	9.90897
Albert 05 Of Saxe-Coburg, Duke	 	a duke of Saxe-Coburg	24 May 1648	Gotha (town)|Gotha	6 August 1699	Coburg	30.06597	70.24194
Albert Azzo II, Margrave of Milan	 	Margrave of Milan (1020-1097)	997 of 1009	Modena, Italy	August 20, 1097	Modena, Italy	45.54991	-99.6465
Albert Frederick, Duke of Prussia	Herzog Albrecht Friedrich von Preußen	Duke of Prussia (1568-1618)	7 May 1553	Königsberg	28 August 1618	Fischhausen	47.7	13.33333
Albert I, Duke of Bavaria	Albrecht I. von Bayern (German)	Count of Hainaut, Holland and Zeeland (1388-1404)	July 25, 1336	Munich	December 13, 1404	the Hague	48.35378	11.78609
Albert II, Duke of Austria	Albert the Wise	Duke of Austria	12 December 1298	Habsburg Castle in Habsburg, Switzerland|Habsburg	16 August 1358	Vienna	39.82569	-80.89705
Albert III of Saxony, Duke	Albrecht der Beherzte (German)	Duke of Saxony (1464-1500)	27 January 1443	Grimma	12 September 1500	Emden	51.2386	12.7293
Albert III the Pious of Bavaria-Munich	Albrecht III. der Fromme, Herzog von Bayern-München (German)	Duke of Bavaria-Munich (1438-1460)	27 March 1401	Munich	29 February 1460	Munich	48.35378	11.78609
Albert III, Duke of Austria	Albert with the Pigtail (nickname); Albrecht III., Graf von Habsburg (German)	Duke of Austria (1365-1395)	9 September 1349	Vienna	29 August 1395	Schloss Laxenburg	48.20849	16.37208
Albert IV, Duke of Austria	Albrecht IV., Erzherzog von Österreich	Archduke of Austria (1395-1404)	19 September 1377	Vienna	14 September 1404	Klosterneuburg	48.20849	16.37208
Albert IV, Duke of Saxe-Eisenach	Albrecht von Sachsen-Eisenach (German)	Duke of Saxe-Eisenach (1640-1644)	27 July 1599	Altenburg	20 December 1644	Eisenach	-20.97378	30.79024
Albert Iv, Duke Of Bavaria	 	Duke of Bavaria	15 December 1447	Munich	18 March 1508	Munich	48.35378	11.78609
Albert Of Austria	 	Archduke of Austria	13 November 1559	Wiener Neustadt	13 July 1621	Brussels	47.84333	16.26014
Albert Of Sweden	 	King of Sweden, Duke of Mecklenburg-Schwerin	1338	Mecklenburg	1 April 1412	Mecklenburg	1338	1412
Albert V, Duke Of Bavaria	 	Duke of Bavaria	29 February 1528	Munich	24 October 1579	Munich	48.35378	11.78609
Albert VI of Bavaria	 	Duke of Bavaria	26 February 1584	Munich	5 July 1666	Munich	48.35378	11.78609
Albert Vi, Archduke Of Austria	 	an Archduke of Inner Austria 1424-1463 and of Austria 1457-1463	December 12, 1418	Vienna	December 2, 1463		48.20849	16.37208
Albert of Stade	 	Franciscan friar and chronicler	1180s	Germany	1260s	Stade, Archdiocese of Bremen, Holy Roman Empire	-29.80183	30.88396
Albert, Duke of Prussia	Albrecht von Preußen (German)	Duke of Prussia	8 July 1490	Ansbach	20 March 1568	Tapiau Castle in Gvardeysk	49.3007	10.5692
Alberti, Leone Battista	 	Italian painter	February 14, 1404	Genoa, Italy	April 20, 1472	Rome	40.17438	-82.89748
Albertinelli, Mariotto	 	Painter	October 13, 1474	Florence	November 5, 1515		-21.87344	30.89136
Albertoni, Ludovica	Cetera, Ludovica	Italian Franciscan tertiary and blessed	1473	Rome, Papal States	January 31, 1533	Rome, Papal States	41.89474	12.4839
Albertus Parisiensis	 	Medieval French composer	before 1146	Estampes, France	after 1177	Paris, France	43.39424	0.27548
Albicus, Sigismund	 	Roman Catholic Archbishop of Prague and a Moravian	1360	Uničov, Moravia	1427	Hungary	-1.48673	-78.05788
Albinus, Bernhard	 	German-born Dutch anatomist	24 February 1697	Frankfurt an der Oder	9 September 1770		42.5	1.58333
Albinus, Clodius	 	Roman usurper proclaimed emperor by the legions in Britain and Hispania	150	Hadrumetum, Africa Province (Sousse, Tunisia)	February 19, 197	Lugdunum	42.5	1.58333
Alboin	 	King of the Lombards	530s	Pannonia	572	Verona, Kingdom of Italy (medieval)|Italy	47.51082	19.03141
Albrecht III Achilles, Elector of Brandenburg	Albert Achilles	Elector of Brandenburg (1471-1486)	9 November 1414	Tangermünde	11 March 1486	Frankfurt am Main	52.5388	11.9626
Albrecht VII, Count of Schwarzburg-Rudolstadt	Albert VII (English)	Count of Schwarzburg-Rudolstadt	16 January 1537	Sondershausen	10 April 1605	Rudolstadt	51.36785	10.8637
Albrecht Wenzel Eusebius von Wallenstein	Waldstein	Czechs|Czech General Officer|general of the Thirty Years' War to Ferdinand II, Holy Roman Emperor|Ferdinand II	24 September 1583	Heřmanice (Náchod District)|Heřmanice, Bohemia	25 February 1634	Cheb, Bohemia	49.96655	16.68464
Albuquerque, Alfonso D'	 	Nobleman	1453	Vila Franca de Xira|Alhandra, Kingdom of Portugal	1515	Goa, Portuguese India	38.95525	-8.98966
Alcibiades	Alcibiades Cleiniou Scambonides (full name); Ἀλκιβιάδης Κλεινίου Σκαμβωνίδης (Greek); Alkibiades (alternate transliteration)	Athenian statesman, orator, and general	450 BC	Athens, (now Greece)	404 BC	Phrygia (now Turkey)	37.98888	23.73604
Alcock, John	 	Bishop of Rochester; Bishop of Worcester; Bishop of Ely; Lord Chancellor of England	about 1430	Beverley, Yorkshire	1 October 1500		-17.8375	31.10583
Alcuin	 	English scholar and abbot	735	York, Northumbria	804		-20.18736	29.24931
Aldhelm	 	Bishop of Sherborne; Abbot of Malmesbury	639	Wessex	25 May 709	Doulting, Somerset	-42.23	146.12
Aldobrandesca	 	Italian Christian saint and nurse	1249	Siena, Italy	1309	Italy	-34.89496	138.53334
Aldrich, Henry	 	Theologian, philosopher, architect, and poet	1647	England	14 December 1710	Oxford, England	38	-61
Aldrovandi, Pompeo	 	Cardinal	23 September 1668	Bologna, Italy	6 January 1752	Montefiascone, Italy	44.50657	11.35041
Aldrovandi, Ulisse	 	Naturalist	11 September 1522	Bologna	4 May 1605		44.50657	11.35041
Aldworth, Elizabeth	 	Female freemason	1693/1695	Doneraile, County Cork, Ireland	1773 or 1775	County Cork, Ireland	52.21667	-8.58333
Aleandro, Girolamo	 	Cardinal and scholar	13 February 1480	Motta di Livenza, Province of Treviso, Republic of Venice	1 February 1542	Venice, Republic of Venice	45.77661	12.60772
Alegambe, Philippe	 	Roman Catholic Jesuit	22 January 1592	Brussels, Belgium	6 September 1652	Rome, Italy	50.8348	4.33653
Alencastre Norona Y Silva, Fernando De	 	Soldier and viceroy	1641	Spain	3 June, 1717	Mexico City, Mexico	17.1859	-89.01033
Aleotti, Giovan Battista	 	Architect	1546	Argenta, Italy	12 December 1636		44.61237	11.83562
Aleotti, Vittoria	Raffaella Aleotti	Italian composer and organist	1575	Ferrara	after 1620	Ferrara	27.33431	-100.15656
Ales, Alexander	 	Theologian	23 April 1500	Edinburgh, Scotland	17 March 1565	Leipzig, Germany	-27.05945	24.71266
Alessandri	 	Jurist	1461	Naples, Italy	1523		34.97785	-97.7142
Alexander 02 Of Scotland	 	King of Scots 1214-1249	24 August 1198	Haddington, East Lothian	6 July 1249	Kerrera, Inner Hebrides	55.91667	-2.75
Alexander 03 Of Scotland	 	King of Scots 1249-1286	11 September 1241	Roxburgh, Roxburghshire	26 March 1286	Kinghorn Ness, Fife	55.56795	-2.47997
Alexander 06	 	Pope	1 January 1431	Xàtiva, Valencia, Crown of Aragon	18 August 1503	Rome, Papal States	38.98333	-0.51667
Alexander 07	 	Pope	13 February 1599	Siena, Grand Duchy of Tuscany	22 May 1667	Rome, Papal States	-34.89496	138.53334
Alexander 08	 	Pope	22 April 1610	Venice, Republic of Venice	1 February 1691	Rome, Papal State	45.25	13
Alexander Of Hales	 	English Franciscan theologian and philopher	1180-1186	Haloswen, Shropshire, Kingdom of England	1245	Paris, Kingdom of France	-41.15	146.16
Alexander, Duke Of Schleswig-Holstein-Sonderburg	 	Danish nobleman	20 January 1573	Sønderborg	13 May 1627	Sønderborg- Beck	54.96437	9.79173
Alexandra of Lithuania	Lithuanian princess, Masovian duchess	Youngest daughter of Algirdas, Grand Duke of Lithuania, and his second wife, Uliana of Tver	late 1360s or early 1370s	Vilnius	April 20, 1434	Płock	54.63413	25.28577
Alexandru 01 Aldea	 	Prince of Wallachia (1431–1436)	1397	Romania	1436	Wallachia	15.32495	44.19532
Alexios II Komnenos	 	Ancient Byzantine emperor	10 September 1169	Constantinople, Byzantine Empire	24 September 1183	Constantinople, Byzantine Empire	42.5	1.58333
Alexis Of Russia	 	Tsar of Russia 1645-1676	29 March 1629	Moscow	29 January 1676	Moscow	55.75222	37.61556
Alfasi, Isaac	 	Talmudist and posek (decider in matters of halakha - Jewish law)	1013	Fes	1103		50.14318	35.96076
Alfonso 06 Of Leon And Castile	 	King of León and Castile	1040	Santiago de Compostela|Compostela	July 1, 1109	Toledo, Spain|Toledo	42.89766	-8.41793
Alfonso 07 Of Leon And Castile	Alfonso Raimúndez	Castilian monarch	1 March 1105	Caldas de Reis	21 August 1157	Sierra Morena	42.5	1.58333
Alfonso 11 Of Castile	 	King of Castile	13 August 1311	Salamanca	27 March 1350	Gibraltar	16.28083	-89.0225
Alfonso I of Asturias	 	Asturian king	693	Cantabria	757	Cangas de Onís, Asturias	45.06667	-7.98333
Alfonso II of Aragon	 	Aragonese monarch	1157	Huesca	25 April 1196	Perpignan	42.13314	-0.40965
Alfonso IV of Aragon	Alfonso the Kind (nickname); Alfons el Benigne (Catalan)	King of Aragon, Valencia, Sicily, Sardinia and Corsica (1327–1336)	1299	Naples	24 January 1336	Barcelona	34.97785	-97.7142
Alfonso IX of León	 	King of León and Galicia	15 August 1171	Zamora, Spain|Zamora	24 September 1230	Villanueva de Sarria	-18.45447	-65.20319
Alfonso Ii, Count Of Provence	 	Count of Provence	1174	Barcelona	1 December 1209	Palermo	9.45588	-64.82928
Alfonso Jordan	Alphonse Jourdain (French)	Count of Tripoli, 1105-1109, thereafter Counts of Toulouse|Count of Toulose	1103	Mont-Pelerin, Tripoli, Lebanon|Tripoli	1148	Caesarea	32.87519	13.18746
Alfonso V of Aragon	 	Monarch	1396	Medina del Campo, Kingdom of Castile	27 June 1458	Castel dell'Ovo, Naples, Kingdom of Naples	41.31239	-4.91413
Alfonso X of Castile	 	King of Castile	23 November 1221	Toledo, Spain|Toledo, Kingdom of Castile	4 April 1284	Seville, Kingdom of Castile	-34.74222	-56.09833
Alfonso of Aragon	 	prince	1481	Kingdom of Naples	18 August 1500	Rome, Papal States	42.5	1.48333
Alfonso of Molina	Alfonso of León, Lord of Molina	Son of King Alfonso IX of León	1203	León, Spain|León	6 January 1272	Salamanca	9.2259	-69.58746
Alfonso, Kristian	Alfonso, Kristian-Joy	American soap opera actress	September 5	Brockton, Massachusetts, United States	 		42.08343	-71.01838
Alfonso, Prince of Asturias	 	Prince of Asturias	17 November 1453	Tordesillas	5 July 1468	Cardeñosa	10.756	122.103
Alfred the Great	Ælfred	King of Wessex	849	Wantage, England	26 October 899	Winchester	41.24312	-74.6259
Algardi, Alessandro	 	Sculptor	31 July 1598	Bologna	10 June 1654		44.50657	11.35041
Ali Al-Akbar Ibn Husayn	 	Muslim martyr	664	Medina	680	Karbala, Iraq	34.83333	15.16667
Ali	 	Cousin and son-in-law of Islamic prophet Muhammad	September 20, 601	Mecca	January 31, 661	Kufa	41.38719	-80.76172
Alice Of Champagne	 	Queen consort of Cyprus	1196	Jerusalem	1246	Acre, Israel	31.78199	35.21961
Alix, Duchess Of Brittany	 	Hereditary Duchess of Brittany 1203-1221	5 September 1201	Brittany	21 October 1221		42.5	1.58333
Allen, Ralph	 	Businessman	1693	St Columb Major	29 June 1764	Bath, Somerset|Bath	42.5	1.48333
Allen, William	 	Cardinal	1532	Rossall, Fleetwood, Lancashire, England	16 October 1594	Rome	53.92527	-3.01085
Allerton Jr., Isaac	 	American politician	1627	Plymouth, Massachusetts	October 25, 1702	Narrow's Plantation, Westmoreland County, Virginia|Westmoreland County, Virginia	-17.29753	31.0973
Allerton, Isaac	 	Mayflower passenger	1586	probably St. Andrews under Shaft, London, England	April 1, 1659	New Haven, Connecticut, USA	51.53223	-0.04905
Alleyn, Edward	 	English actor	1 September 1566	Bishopsgate, London	25 November 1626		51.53223	-0.04905
Allouez, Claude-Jean	 	French missionary	June 6, 1622	Saint-Didier-en-Velay	August 28, 1689	near what is today Niles, Michigan	45.30234	4.27561
Almeida, Joao Ferreira De	 	Portuguese pastor	1628	Torres de Tavares, Portugal	1691		-23.48628	-46.73367
Almeida, John	 	English Jesuits	1571	London	24 September 1653	Rio de Janeiro	51.53223	-0.04905
Alpini, Prospero	 	Venetian physician and botanist	November 23, 1553	Marostica, Italy	February 3, 1617	Padua, Italy	45.7468	11.6579
Alstromer, Jonas	 	Swedish agronomist	7 January 1685	Alingsås	2 June 1761		58	12.5
Altdorfer, Albrecht	 	German renaissance painter	about 1480	Regensburg	12 February 1583	Regensburg	49.01681	12.09536
Alvarez de Toledo, Fernando 03	Grand Duke of Alba	Spanish military leader and diplomat	29 October 1507	Ávila, Spain	1582-12-11	Lisbon, Portugal	10.54275	-66.874
Alvarez, Mabel	 	American artist	November 28, 1491	Oahu, Hawaii, United States	March 13, 1985	Los Angeles	-17.75	-149.53333
Amadeus III, Count of Savoy	Amédée III de Savoie (French); Amedeo III di Savoia (Italian)	Count of Savoy (1103-1148)	1095	Carignano	April 1148	Nicosia	44.90694	7.67322
Amadeus IX of Savoy	 	Duke of Savoy	1 February 1435	Thonon-les-Bains	30 March 1472		46.36667	6.48333
Amadeus V of Savoy	Medeo V (Piedmontese)	Count of Savoy (1285-1323)	between 1249 and 1253	Le Bourget-du-Lac	16 October 1323	Avignon	45.64756	5.86085
Amadeus of Portugal	da Silva, Joao de Mendes 	Franciscan friar and reformer	1420	Rio Maior, Portugal	10 August 1482	Milan, Italy	39.2	-8.71667
Amadeus, Charles, Duke Of Nemours	 	French military leader and magnate	12 April 1624	Paris, France	30 July 1652	Paris, France	48.86694	2.78207
Amalberga of Maubeuge	 	Saint	7th century	unknown	about 690	Abbey of Maubeuge	31.33722	67.79028
Amalia Catharina	 	German poet and musician	8 August 1640	Bad Arolsen|Arolsen	4 January 1697		51.3667	9.01667
Amalia of Solms-Braunfels	Amalie zu Solms-Braunfels (German)	Regent of Orange	31 August 1602	Braunfels	8 September 1675	the Hague	50.5009	8.39557
Amand, Saint	 	Saint	584	Poitou|Lower Poitou	675	Saint-Amand Abbey|Saint-Amand	46.10342	-0.1986
Amar Das	 	Indian religious leader	31 March 1479	Basarka, Punjab region|Punjab, India	1 September 1574	Amritsar, Punjab (India)|Punjab, India	42.56667	1.48333
Ambrose Of Siena	 	Italian teacher and diplomat	16 April 1220	Siena	1286	Siena	-34.89496	138.53334
Ambrose	Ambrose, Saint; Ambrosius; Ambrogio; Ambroeus;	bishop of Milan; one of the four original doctors of the Church	between 337 and 340	Trier, Germany	4 April 397	Milan, Italy	48.67778	-98.90338
Amelot, Denis	 	French Oratorian Biblical translator and scholar	1609	Saintes, Charente-Maritime, Kingdom of France	7 October 1678	Paris, Kingdom of France	50.70499	4.16006
Amerbach	 	German printer	1440	Amorbach, Germany	25 December 1513	Basel, Switzerland	49.6431	9.2273
Ames, William	 	English Protestant divine, philosopher, and controversialist	1576	Ipswich	14 November 1633	Rotterdam	45.4632	-99.02969
Ammann, Jakob	Amman, Jacob	Swiss Brethren minister from whom the Amish received their name.	February 12, 1644	Erlenbach im Simmental	between 1712 and 1730		46.66021	7.55445
Amontons, Guillaume	 	French scientific instrument inventor and physicist	31 August 1663	Paris, France	11 October 1705	Paris, France	48.86694	2.78207
Amy Robsart	Amy Dudley	wife of Robert Dudley, 1st Earl of Leicester	7 June 1532	Norfolk	8 September 1560	Abingdon, Oxfordshire	-29.03333	167.95
Anastasius I	 	Byzantine Emperor	430	Dyrrhachium, modern Durrës in Albania	518	Constantinople	42.5	1.58333
Anastasius IV	 	Pope Pope	1073	Rome, Papal States, Holy Roman Empire	1154	Rome, Papal States, Holy Roman Empire	41.89474	12.4839
Anawrahta	Min Saw	King of Burma	8 March 1015	Bagan|Pagan	23 March 1078	Bagan|Pagan	21.17264	94.86154
Anchieta, Jose de	 	Spanish Jesuit missionary	March 19, 1534	San Cristóbal de La Laguna, Canary Islands	June 9, 1597	Anchieta, Espírito Santo|Reritiba, Espírito Santo	28	-15.5
Ancina, John Juvenal	Ancina, Giovanni Giovenale	Italian Oratorian and bishop 	October 19, 1545	Fossano, Duchy of Savoy 	August 30, 1604	Saluzzo, Duchy of Savoy	44.54894	7.72013
Andrew of Crete	 	Christian bishop and saint	650	Damascus	 	Mytilene	33.5102	36.29128
Andrew, Samuel	 	Congregational clergyman and educator	29 January 1656	Cambridge, Massachusetts|Cambridge, Massachusetts	24 January 1738	Milford, Connecticut|Milford, Connecticut	-18.02599	31.6763
Andrewes, Lancelot	Andrewes, Bishop	English divine	1555	Barking, London, United Kingdom	yes|1626|9|25Tarquinius Priscus, Lucius	Tarquin the Elder	Fifth King of Rome	Seventh century BC
Andros, Edmund	 	British governor of several North American colonies	6 December 1637	London, England	24 February 1714	London, England	51.53223	-0.04905
Anel, Dominique	 	French surgeon	1679	Toulouse	1730		32.04162	34.74759
Angela of Foligno	 	Franciscan tertiary and mystic	1248	Foligno, Holy Roman Empire	4 January 1309	Foligno, Papal States	42.94404	12.70107
Angelico, Fra	John of Fiesole	Italian Dominican friar and painter	1395	Vicchio, Republic of Florence	February 18, 1455	Rome, Papal States	43.93245	11.45852
Angelina, Irene	 	Byzantine queen	1181	Constantinople	1208	Hohenstaufen Castle	42.5	1.58333
Angelus Of Jerusalem	 	Christian saint	1185	Jerusalem, Israel	1222	Licata, Sicily	31.78199	35.21961
Anglesey, Arthur Annesley, 1st Earl of	 	English politician	10 July 1614	Dublin, Ireland	6 April 1686	London, England	53.34754	-6.2103
Angre, Kanjohi	 	Indian admiral	1669	At-Harne District-Ratnagiri, India	4 July 1729	KOLABA FORT Alibag Maharashtra, India	-26.21891	28.16039
Angus, Archibald Douglas, 6th Earl of	 	Scottish noble	1490	Douglasdale, Lanark, Scotland	22 January 1557	Tantallon Castle, Scotland	-20.23759	28.63774
Anjuman	 	Pakistani actor	15 April	Multan Pakistan	 		42.5	1.48333
Anna Maria Luisa de' Medici	 	Last scion of the House of Medici; Electress Palatine	11 August 1667	Palazzo Pitti, Florence, Tuscany	18 February 1743	Palazzo Pitti, Florence, Tuscany	-21.87344	30.89136
Anna Maria of Mecklenburg-Schwerin	Anna Maria Dorothea (outdated); Anna Maria, Herzogin zu Mecklenburg (German)	Consort of Augustus, Duke of Saxe-Weissenfels	1 July 1627	Schwerin	11 December 1669	Halle, Saxony-Anhalt|Halle	-24.88333	128.45
Anna Of Austria	 	Holy Roman Empress	4 October 1585	Innsbruck, Austria	14 December 1618	Vienna, Austria	47.2705	11.3946
Anna Of Saxony	 	Dutch princess	23 December 1544	Dresden	18 December 1577	Dresden	39.61089	-100.46062
Anna of Brandenburg	Anna af Brandenburg	Duchess of Schleswig and Holstein	27 August 1487	Berlin, Margraviate of Brandenburg	3 May 1514	Kiel, Holstein	52.44812	13.27782
Anna of Holstein-Gottorp	 	Wife of Enno III of Ostfriesland	27 February 1575	Gottorp	24 April 1610		65.49523	-20.56483
Anna of Prussia, Duchess	Anna von Preußen (German)	Electress consort of Brandenburg (1608-1619)	3 July 1576	Königsberg	30 August 1625	Berlin	47.7	13.33333
Anna of Russia	Ivanovna, Anna	Empress of Russia	7 February 1693	Moscow	28 October 1740		55.75222	37.61556
Anne Catherine of Brandenburg	 	Queen consort of Norway and Denmark	26 June 1575	Halle (Saale)	8 April 1612	Copenhagen, Denmark	51.48298	11.97202
Anne Eleonore of Hesse-Darmstadt	Anna Eleonore von Hessen-Darmstadt (German)	Duchess of Brunswick-Lüneburg by marriage	30 July 1601	Darmstadt	6 May 1659	Herzberg Castle	49.87237	8.62972
Anne Marie D'orleans	 	Queen consort of Sardinia	27 August 1669	Château de Saint-Cloud, France	26 August 1728	Villa della Regina, Piedmont	15.33712	44.2012
Anne Marie Louise Of Montpensier, Duchess	 	French princess and duchess	29 May 1627	Palais du Louvre, Paris, France	5 April 1693	Luxembourg Palace|Palais du Luxembourg, Paris, France	48.86694	2.78207
Anne Of Bohemia	Anna of Pomerania-Luxembourg	Queen consort of England	11 May 1366	Prague	7 June 1394	Sheen	50.10083	14.26
Anne Of Brittany	 	Duchess of Brittany	25 January 1477	Nantes, Brittany	9 January 1514	Blois, France	19.43333	-71.76667
Anne of Cleves	 	Queen consort of Henry VIII of England|Henry VIII	22 September 1515	Düsseldorf, Duchy of Cleves (now Germany)	16 July 1557	London, England	51.2305	6.77365
Anne of Denmark	 	Queen consort of James VI of Scots, I of England	12 December 1574	Skanderborg, Denmark	2 March 1619	Hampton Court Palace, England	56.03991	9.9272
Ansegisus, Saint	 	Monastic reformer	770	France	20 July 0833	Fontenelle	15.33712	44.2012
Anselm Of Lucca	 	Catholic cardinal and saint	1036	Milan	March 18, 1086		42.12889	19.5875
Ansgar	 	Saint	801	Amiens	3 February 0865	Bremen (city)|Bremen	-32.83636	144.83388
Anson, George, 1st Baron Anson	 	British admiral	23 April 1697	Staffordshire, England	6 June 1762	Moor Park (house)|Moor Park, Hertfordshire, England	52.83333	-2
Anthim The Iberian	 	Eastern Orthodox theologian	1650	Georgia (country)|Georgia	1716	Adrianopol	-52.5	-32.5
Anthony Of Kiev	 	Monk	983	Lyubech, Chernigov Principality	1073	Kiev, Ukraine	51.7026	30.65692
Anthony The Great	 	Egyptian saint	251	Herakleopolis Magna, Egypt	356	Mount Colzim, Egypt	-19.55048	29.11418
Anthony Ulrich, Duke of Brunswick-Wolfenbuttel	Anton Ulrich von Braunschweig-Wolfenbüttel (German)	Co-ruler of Brunswick-Wolfenbuttel from 1685 to 1702; sole ruler from 1704 to 1714	4 October 1633	Hitzacker	27 March 1714	Salzdahlum	53.15254	11.04418
Anthony of Padua, Saint	Bulhões, Fernando de; Anthony of Lisbon, Saint	Portuguese Franciscan friar	15 August 1195	Lisbon	13 June 1231	Padua	38.76529	-9.09518
Anthony of the Mother of God	Oliva y Ordás, Antonio	Spanish Carmelite friar and philospher	1583	Leon, Spain	1637	Salamanca, Spain	44.41335	-92.85489
Antiochus 03	 	Seleucid ruler	241 BC	Babylon, Mesopotamia	 	Susa, Elymais	39.5	-71.93333
Anton Florian, Prince of Liechtenstein	 	Prince of Liechtenstein	28 May 1656	Wilfersdorf	11 October 1721	Vienna	47.1	15.66667
Anton Ulrich of Saxe-Meiningen, Duke	Anton Ulrich von Sachsen-Meiningen (German)	Duke of Saxe-Meiningen (1746-1763)	22 October 1687	Meiningen	27 January 1763	Frankfurt	50.56633	10.40584
Antoninus of Florence	Pierozzi, Antonio	Dominican friar and archbishop	1 March 1389	Florence, Florentine Republic	2 May 1459	Florence, Florentine Republic	-21.87344	30.89136
Anwaruddin Muhammed Khan	 	Nawab of the Carnatic during First and Second Carnatic Wars	1672	Gopamau, Awadh	1749	Ambur, Carnatic	31.65572	35.19598
Apollinaris	 	Bishop of Valence	453	Vienne	520	Valence	45.52556	4.87472
Apollinaris, Sidonius	 	Poet, diplomat and Bishop	430	Lugdunum, Gaul	 		24.77804	88.5236
Apostle, John The	 	Apostle	6 AD	Galilee	100 AD	Ephesus, Asia Minor	-22.33333	145.81667
Apsley, Allen	 	English politician	1616	St Martin-in-the-Fields	October 15, 1683	London	42.5	1.48333
Aquila, Caspar	Johann Kasper Aquila	German religious reformer	August 7, 1488	Augsburg	November 12, 1560	Saalfeld	48.50011	-96.71487
Ar-Rahman Ii, Abd	 	Emir of Cordoba	788	Toledo, Spain|Toledo	852	Córdoba, Andalusia|Córdoba	-34.74222	-56.09833
Aragon, Eleanor Of	 	Queen consort of Castile	20 February 1358	El Puig|Santa Maria del Puig	13 August 1382	Cuéllar	41.43612	1.84707
Aragon, Joanna Of	Naples, Queen Joanna of	Queen consort of Naples	16 June 1454	Barcelona	9 January 1517	Naples	9.45588	-64.82928
Aragon, Martin I of	Martin the Elder	King of Aragon	29 July 1356	Girona	20 January 1410	Barcelona	41.97879	2.81649
Arai Hakuseki	 	Japanese philosopher	March 24, 1657	Edo	June 29, 1725	Edo	7.34506	6.11489
Aranzi, Julius Caesar	 	Italian anatomist	1530	Bologna	April 7, 1589		44.50657	11.35041
Arbeau, Thoinot	Tabourot Jehan (real)	French dance manual author and priest	March 17, 1519	Dijon	July 23, 1595	Langres	7.73333	0.78333
Arbués, Pedro de	 	Spanish canon regular and inquisitor	1441	Kingdom of Aragon	1485	Zaragoza, Kingdom of Aragon	42.5	1.48333
Arbuthnot, John	 	English physician, satirist and polymath	1667	Kincardineshire, Scotland	1735		45.28339	-97.91979
Archduchess Maria Anna of Austria	Maria Anna von Österreich (German)	Electress of Bavaria by marriage (1635–1651)	13 January 1610	Graz	25 September 1665	Munich	46.99107	15.43963
Archibald Douglas	Archibald the Grim	3rd Earl of Douglas	1328	Douglas, South Lanarkshire	1400	Threave Castle	-17.25012	31.1861
Archimedes	 	ancient Greek mathematician, physicist and engineer	287 BC	Syracuse, Sicily, Magna Graecia	212 BC	Syracuse, Sicily, Magna Graecia	37.97952	-101.73422
Aredius	 	Abbot of Limoges	510	Limoges|Limoges, France	591		50.65	4.53333
Argyropoulos, John	Argyropulus, John	Byzantine philosopher	1415	Constantinople, Byzantine Empire	1487-06-26	Rome, Papal States, Italy	42.5	1.58333
Arima Harunobu	 	Daimyo	1567	Edo, Japan	June 5, 1612		7.34506	6.11489
Aristotle	Ἀριστοτέλης (Greek)	Greek philosophy|Greek philosopher	384 BC	Stagira (ancient city)	322 BC	Chalcis	42.5	1.48333
Arius	 	Christian presbyter	256	ancient Libya|Libya	336	Constantinople	15.33083	44.19941
Armand de Bourbon, Prince de Conti	 	Frondeur	11 October 1629	Paris	26 February 1666	Grangeau Prés Manor, near Pezenas	48.86694	2.78207
Arminius, Jacobus	 	Dutch theologian	October 10, 1560	Oudewater, Utrecht (province)|Utrecht	October 19, 1609	Leiden, South Holland	52.0284	4.86243
Arnauld, Jacqueline-Marie-Angelique	 	French Cistercian abbess	September 8, 1591	Paris, Kingdom of France	August 6, 1661	Abbey of Port-Royal-des-Champs, Kingdom of France	48.86694	2.78207
Arndt, Johann	Arnd, Johann	Germany|German Lutheran theology|theologian	27 December 1555	Edderitz near Ballenstedt	11 May 1621	Celle	42.5	1.48333
Arngrimur Jonsson	 	Icelandic writer	1568	Víðidalur, Iceland	June 27, 1648	Melstaður, Vestur-Húnavatnssýsla	67	-27
Arnim-Boitzenburg, Hans Georg von	 	German general	1583	Boitzenburger Land	April 28, 1641	Dresden	42.5	1.58333
Arnold Of Soissons	 	French bishop and saint	1040	Tiegem, Flanders	1087		50.80901	3.47479
Arnold, Benedict	 	Rhode Island colonial governor	21 December 1615	Ilchester, Somerset, England	19 June 1678	Newport, Rhode Island	-17.85098	31.90482
Arnold, Duke of Guelders	Arnold of Egmont; Arnold van Gelre (Dutch)	Duke of Guelders (1423-1465 and 1471-1473)	14 July 1410	Egmond-Binnen, North Holland	23 February 1473	Grave, Netherlands|Grave	42.5	1.58333
Arnold, Gottfried	 	German Lutheran theologian and historian	5 September 1666	Annaberg, Saxony	30 May 1714		47.51453	13.43164
Arpo, Guariento di	 	Italian artist	1310	Piove di Sacco	1370		45.29769	12.03681
Arrowsmith, Edmund	 	Lancaster priest	1585	Haydock, England	August 28, 1628	Lancaster, England	38	-61
Arthur I	 	Duke Of Brittany	29 March 1187	Nantes, Brittany	1203?	Rouen?	19.43333	-71.76667
Arthur Iii, Duke Of Brittany	 	Duke Of Brittany	24 August 1393	Château de Sucinio	26 December 1458	Nantes	42.5	1.48333
Aruj	 	Pirate	1474	Lesbos|Midilli, Ottoman Empire	1518	Algeria, Ottoman Empire	39.1698	26.24251
Arundel, John FitzAlan, 14th Earl of	 	English noble	14 February 1408	Lytchett Matravers, Dorset	12 June 1435	Beauvais, France	50.75826	-2.07806
Aryabhata	 	Indian mathematician 	476	prob. Ashmaka	550		42.5	1.48333
Asakura Yoshikage	 	Daimyo who ruled a part of Echizen Province	October 12, 1533	Ichijōdani, Echizen province	September 16, 1573	Rokubō Kenshō-ji in present-day Ōno, Fukui|Ōno, Fukui Prefecture	36.01366	136.29738
Asanga	 	Buddhist monk and Yogacara teacher	300	Purushapura, Gandhara	 		42.5	1.48333
Asbaje y Ramírez de Santillana, Juana Ines de	Juana Ines de la Cruz	Mexican nun, writer and poet 	12 November 1651 	Tepetlixpa (aka San Miguel Nepantla), New Spain, Spanish Empire 	17 April 1695 	Mexico City, New Spain, Spanish Empire	42.5	1.48333
Ascham, Roger	 	English academic and writer	1515	Kirby Wiske, Yorkshire	1568		54.25759	-1.42464
Ascheberg, Rutger	 	Swedish noble	June 2, 1621	Berbonen, Courland	April 17, 1693	Gothenburg, Sweden	-41.94	148.3
Ashbrook, Daphne	 	United States actor	January 30	Long Beach, California, United States	 		33.76474	-118.18923
Ashmole, Elias	 	English antiquarian, politician, officer of arms, astrologer and alchemy|alchemist	23 May 1617	Lichfield, Staffordshire, England	18 May 1692	Lambeth, London, England	-17.62014	31.08636
Askew, Anne	Ayscough, Anne; Kyme, Anne	English Protestant martyr	1520/1521	Stallingborough, Lincolnshire, England	16 July 1546	Smithfield, London, England	53.58675	-0.18489
Aspasia	 	Milesian woman, involved with Athens|Athenian statesman Pericles	470 BC	Miletus	400 BC	Probably Athens	42.5	1.58333
Assandra, Caterina	Caterina Agata Assandra	Italian nun and composer	1590	Pavia, Italy	after 1618		10.8	122.51667
Astell, Mary	 	English feminist writer	12 November 1666	Newcastle upon Tyne, England	11 May 1731		55	-1.66667
Astikas, Radvila	Radvila Astikaitis; Radziwiłł Ościkowicz (Polish)	Lithuanian nobleman; founder of the Radvila family	1384	Kernavė	1477	Vilnius	54.88333	24.85
Astley Of Reading, Jacob Astley, 1st Baron	 	British Royalist commander	1579	Melton Constable Hall	1652		42.5	1.48333
Athenagoras Of Athens	 	Father of the Church	133	Athens	190	Athens	37.98888	23.73604
Atherton, John	 	Irish Bishop	1598	Somerset, England	5 December 1640	Dublin, Ireland	-17.85098	31.90482
Athlone, Godert De Ginkell, 1st Earl of	 	Dutch general	1630	Amerongen	11 February 1703	Utrecht (city)|Utrecht	42.5	1.58333
Atiśa	 	Buddhist	982	Bikrampur, Bengal	1054	Nyetang, Tibet	22.8961	88.949
Attalus I Soter	Attalos I (alternative transliteration)	Greek dynast and king	269 BC	Unknown	197 BC	Pergamon	25.85106	88.24131
Attalus II Philadelphus	Philadelphus, Attalus II	King of Pergamon	220 BC	Pergamon, Ancient Greece	138 BC		42.5	1.58333
Attar, Farid ud-Din Muhammad ibn Ibrahim	 	Persian Sufi poet	1145	Nishapur	 	Nishapur	42.5	1.58333
Atterbury, Francis	 	British bishop	6 March 1663	Middleton (Milton Keynes Village)|Milton Keynes, Buckinghamshire	22 February 1732	Paris, France	52.03982	-0.76322
Aubigne, Agrippa d'	 	French poet	February 8, 1552	Château de Saint-Maury, Charente-Maritime, France	April 29, 1630	Geneva, Switzerland	45.5	-0.75
Audley Of Walden, Thomas Audley, 1st Baron	 	English politician	1488	Earls Colne, Essex Kingdom of England	1544	Saffron Walden, Kingdom of England	42.5	1.58333
Audoin	 	Frankish bishop	609	Sancy	686	Clichy	45.52815	2.81396
August Philipp of Schleswig-Holstein-Sonderburg-Beck, Duke	 	Duke of Schleswig-Holstein-Sonderburg-Beck (1627-1675)	November 11, 1612	Sonderborg	May 6, 1675	Beck	42.5	1.58333
August, Christian, Prince of Anhalt-Zerbst	 	German general	29 November 1690	Gommern|Dornburg	16 March 1747	Zerbst	52.0667	11.8333
Augusta, Princess of Denmark	 	Duchess Consort of Holstein-Gottorp (1596-1616)	8 April 1580	Koldinghus	5 February 1639	Husum Castle	42.5	1.48333
Augustine of Alfeld	 	Franciscan friar and theologian	1480	Alfeld, Lower Saxony	1535		51.9881	9.817
Augustus of Saxony, Elector	 		31 July 1526	Freiberg, Saxony|Freiberg	11 February 1586	Dresden	31 July 1526	11 February 1586
Augustus the Younger, Duke of Brunswick-Lüneburg	August der Jüngere (German)	Duke of Brunswick-Lüneburg and Prince of Wolfenbüttel (1635-1666)	10 April 1579	Wolfenbüttel	17 September 1666	Wolfenbüttel	52.1578	10.5579
Augustus	Gaius Julius Caesar Octavianus; Octavian; Gaius Octavius Thurinus	first Roman Emperor	23 September 63 BC	Rome	19 October 14	Nola	41.89474	12.4839
Aurangzeb	 	Mughal empreror	4 November 1618	Dahod	3 March 1707	Ahmednagar	42.5	1.58333
Aurea of San Millan	 	Medieval Spanish anchoress	1042	Villavelayo, Taifa of Zaragoza	11 March 1070	San Millán de la Cogolla, Kingdom of Pamplona	42.13084	-2.98565
Aurelian	 	Roman emperor	214 or 215	Sofia|Serdica or Sirmium	275	Çorlu|Caenophrurium, Thrace	42.69751	23.32415
Austria, Catherine Of	 	Queen of Poland	15 September 1533	Innsbruck	28 February 1572	Linz	47.2705	11.3946
Austria, Catherine Of	Catherine of Castile, Catherine of Burgundy	Queen consort and regent of Portugal	14 January 1507	Torquemada, Palencia, Spain	12 February 1578	Lisbon, Portugal	42.0349	-4.3184
Austria, John of	 	Spanish general	24 February 1547	Regensburg, Bavaria	1 October 1578	Namur (city)|Namur	49.01681	12.09536
Austria, Maria Anna Of	 	Portuguese queen	7 September 1683	Linz, Germany	14 August 1754	Ribeira Palace, Lisbon, Portugal	41.34861	19.88306
Newcomen, Thomas	 		24 February 1664	Dartmouth, England|Dartmouth, Devon, England	5 August 1729	London	48.22671	-97.07798
Avogadro, Albert	 	Bishop and canon lawyer	1149	Parma, Italy	September 14, 1214	Akko (Acre)	43.78516	-116.94321
Aylmer, John	 	Bishop of London	1521	Tilney St Lawrence, Norfolk	3 June 1594		-29.03333	167.95
Aymon, Count of Savoy	Aimone of Savoy; Aymon the Peaceful	Count of Savoy (1329-1343)	15 December 1291	Chambéry	22 June 1343	Montmélian	45.63805	5.88022
Báthory, Elizabeth	Báthory Erzsébet (Hungarian language|Hungarian); Bátoriová(-Nádašdy), Alžbeta (Slovak language|Slovak); Bloody Lady of Csejte (nickname); Lady Dracula (nickname)	Countess and serial killer	7 August? 1560	Nyírbátor, Hungary	21 August 1614	Csejte, Hungary	47.83333	22.13333
Baal Shem Tov	 	Rabbi	August 25, 1698	Okopy, Ternopil Oblast|Okopy	1760-05-22	Medzhybizh	51.493	29.6025
Baazius, Johan 2	 	Archbishop of Uppsala	1626	Jönköping	1681		57.75759	14.06873
Baba, Rahman	 	Pashtun Sufi Saint	1653	Peshawar	1711	Peshawar	34.00523	71.47934
Babaji, Mahavatar	Nagraj	Hindu Yogi	30 November 203 A.D	Parangipettai, Tamil Nadu, India	 		42.56667	1.48333
Babur	 	 Mughal Empire|Mughal Emperor from Central Asia	23 February 1483	Andijan	5 January 1531	Agra	42.5	1.58333
Bacalso, Joanna	 	Actress	August 10	Philippines	 		17.56133	120.38546
Bach, Johann Aegidius	 	German organist, father of Johann Bernhard Bach	9 February 1645	Erfurt, Germany	November 1716	Erfurt, Germany	50.97456	11.02974
Bach, Johann Bernard	 	German composer	23 May 1676	Erfurt	11 June 1749		50.97456	11.02974
Bach, Johann Christoph	 	German composer and organist	6 December 1642	Arnstadt	31 March 1703	Eisenach	50.8354	10.96487
Bach, Johann Jacob	 	Oboist, flutist, possibly composer, an older brother of Johann Sebastian Bach	1682	possibly Eisenach	1722	Stockholm, Sweden	42.5	1.48333
Bach, Johann Ludwig	 	German composer and violinist	4 February 1677	Thal, Germany	buried 1 May 1731		16.99181	43.34532
Bach, Johann Michael	 	German composer	9 August 1648	Arnstadt	17 May 1694	Gehren	50.8354	10.96487
Bacon, Francis	Bacon, 1st Viscount St Alban, Francis (full name and title); Verulam, Baron (title); St Alban, Viscount (title)	Philosopher and statesman	22 January 1561	Strand, London, England	9 April 1626	Highgate, London, England	51.53223	-0.04905
Bacon, Nathaniel	 	Colonist, leader of Bacon's Rebellion	1640s	 Suffolk, England	26 October 1676	Jamestown, Virginia	45.9334	-74.91597
Bacon, Roger	 	Philosopher	1214	Ilchester, Somerset	1294	Oxford	-17.85098	31.90482
Badi Al-Zaman Al-Hamadani	 	Arabic poet	967	Hamedan	1007		42.5	1.58333
Baeda Maryam I Of Ethiopia	 	Ethiopian Emperor	1448	Debre Berhan	November 8, 1478	Abasi Wera Gabayi	42.5	1.58333
Baert, Francois	 	Jesuit hagiographer	25 August 1651	Ypres	27 October 1719	Antwerp	-20.27588	32.66968
Baffard, Angel of St. Rosalie	Baffard, Ange de Sainte-Rosalie	Augustinian friar and genealogist	1655	Blois, France	1726	Paris, France	47.58333	1.33333
Baghdadi, Junaid	Junayd of Baghdad	 	830	Baghdad	910	Baghdad	33.34058	44.40088
Baglione, Giovanni	 	Italian painter	1566	Rome	30 December 1643	Rome	41.89474	12.4839
Baglivi, Gjuro	 	Italian physician	September 8, 1668	Dubrovnik, Croatia (then the Republic of Ragusa)	June 15, 1707	Rome	42.64861	18.09397
Bahadur Shah I	 	Mughal Empire|Mughal Emperor, who ruled India	14 October 1643	Burhanpur, Mughal Empire	27 February 1712	Lahore, Mughal Empire	42.5	1.58333
Bai, Juyi	 	Poet of the Tang dynasty	772	Xinzheng, China	846	Xiangshan Monastery, Longmen (Luoyang), Henan, China.	23.20306	120.18778
Bai, Li	Li Po; 李白 (Chinese); Lǐ Bái (pinyin)	Chinese Poet	701	Suiye in Central Asia	762	Yangtze River	42.5	1.48333
Baibars	 	Sultan of Egypt	19 July 1223	Crimea	1 July 1277	Damascus, Syria	-31.88528	115.9036
Baillie, Grizel	Grisell Baillie, Grisell Hume	Scottish Songwriter	25 December 1665	Redbraes Castle, Berwickshire	6 December 1746	 London	42.56667	1.68333
Bainbridge, John	 	English astronomer	1582	Ashby-de-la-Zouch	3 November 1643	Oxford	42.5	1.58333
Baker, Richard	 	English politician	1568	Sissinghurst, Kent	18 February 1645	Fleet Prison, London	-20.55857	29.39534
Bakr, Abu	 	Muslim Caliph	573	Mecca, Arabian Peninsula|Arabia	23 August 0634	Medina, Arabian Peninsula|Arabia	41.38719	-80.76172
Balboa, Miguel Cabello	 	Spanish secular priest and writer.	1535	Archidona	1608		37.09654	-4.38869
Balbuena, Bernardo De	 	Poet	1561	Valdepeñas (Spain	October 1627		42.5	1.48333
Baldwin I of Jerusalem	 		1058	Lower Lorraine	1118	Al-Arish, Egypt	1 January 1058	2 April 1118
Baldwin V, Count of Flanders	Baldwin the Pious; Baldwin of Lille	Cont of Flanders (1035-1067)	19 August 1012	Arras	1 September 1067	Lille	41.73583	20.32417
Baldwin, Jack	 	American racing driver	May 31	Tampa, FL	 		27.87307	-82.51007
Bale, John	 	Anglican bishop in Ireland	21 November 1495	Cove Hithe|Cove, Suffolk, Kingdom of England	1563	Canterbury, Kent, Kingdom of England	50.14528	-124.92339
Balen, Hendrick Van	 	painter	1575	Antwerp	1632	Antwerp	42.2009	-85.82171
Balen, Mathias	Matthijs Balen, Matthys Balen	Dutch writer	1-10-1611	Dordrecht	1691		-33.5	101.33333
Balestra, Antonio	 	Italian painter	12 August 1666	Verona	21 April 1740	Verona	-17.27816	31.07613
Banér, Johan	Banér, Jan	Sweden|Swedish Field Marshal	23 June 1596	Djursholm|Djursholm Castle, Sweden	10 May 1641	Halberstadt, Electorate of Saxony|Saxony	42.56667	1.48333
Ban Zhao	 	Chinese historian	45	Anling, near modern Xianyang, Shaanxi province	116		30.0427	117.62
Bandera, Vaitiare	 	French Polynesian model and actress	August 15, 19???	Tahiti, French Polynesia	 		-17.61667	-149.45
Barbara Jagiellon	Barbara of Poland; Barbara Jagiellonka (Polish); Barbara von Polen (German)	Duchess consort of Saxony and Margravine consort of Meissen (1500-1534)	15 July 1478	Sandomierz	15 February 1534	Leipzig	50.68265	21.74898
Barbarossa	Hayreddin Barbarossa	Ottoman admiral	1476	Lesbos Island|Midilli, Ottoman Empire	1546	Constantinople, Ottoman Empire	39.22906	26.10901
Barberini, Antonio	 	Catholic cardinal	5 August 1607	Rome	3 August 1671	Nemi	41.89474	12.4839
Barbezieux, Louis François Marie Le Tellier, Marquis de	 	France|French statesman	23 June 1668	Barbezieux-Saint-Hilaire (Charente)	5 January 1701		42.5	1.48333
Bardai, Chand	 	Court poet of Prithvi Raj Chauhan	September 30, 1149	Rajasthan, India	1200		-26.21891	28.16039
Barkworth, Mark	 	English Roman Catholic priest	1572	Searby, Lincolnshire, England	1601	Tyburn, London, EnglandWalther, Bernhard	 	German astronomer
Barnfield, Richard	 	English poet	1574	Norbury, Staffordshire	1627		-37.19792	143.57347
Barnham, Alice	Bacon, Alice; Viscountess St. Albans	Wife of Francis Bacon	14 May 1592	London, England	1650	Hertfordshire, England	51.53223	-0.04905
Barocci, Federico	 	Italian painter	1528	Urbino	1612	Urbino	43.72976	12.63555
Baron, Bonaventure	 	Irish Friar Minor and scholar	1610	Clonmel, County Tipperary, Ireland	18 March 1696	Rome, Papal States	-38.73125	146.68263
Baron, Vincent	 	French Dominican theologian writer	17 May 1604	Martres, Gironde, France	21 January 1674	Paris, France	44.71068	-0.16865
Baronius, Caesar	 	Catholic cardinal 	August 30, 1538	Sora, Italy|Sora, Duchy of Sora	June 30, 1607	Rome, Papal States	13.5	44.91667
Barros, João de	De Barros, João; Barros, Juan de; Barros, Joam de	Portuguese historian	1496	Santiago de Litém, Pombal, Portugal	20 October 1570	Santiago de Litém, Pombal, Portugal	-21.83444	-43.48806
Bart, Jean	 	French admiral	21 October 1651	Dunkirk	27 April 1702	Dunkirk	-17.34119	31.05231
Bartholin, Thomas	 	Danish physician, mathematician and theologian	October 20, 1616	Copenhagen, Denmark	December 4, 1680	Copenhagen, Denmark	55.58297	12.62937
Bartholomew Of Braga	 	Portuguese Dominican theologian	1514	Verdela, near Lisbon, Portugal	16 July 1590	Viana do Castelo, Portugal|Viana do Castelo, Minho Province|Minho, Portugal	42.56667	1.48333
Basarab 01 Of Wallachia	 	Ruler of Wallachia	1310s	''Unknown''	1352	Câmpulung	42.5	1.48333
Basil Fool For Christ	Basil the Blessed	Eastern Orthodox Church Saint	December 1469	Yelokhovo, Russia	2 August 1552	Moscow, Russia	60.27727	32.70083
Basil of Caesarea	Basil the Great (honorific); Basilius (Latin); Μέγας Βασίλειος (Greek)	Christian Saint	330	Caesarea Mazaca, Cappadocia (now Kayseri, Turkey)	January 1, 379	Caesarea Mazaca, Cappadocia	42.5	1.48333
Bassano, Jacopo	 	Italian painter	1510	Bassano del Grappa near Venice , Republic of Venice	14 February 1592	Bassano del Grappa near Venice, Republic of Venice	42.5	1.48333
Bastidas, Rodrigo de	 	Spanish conquistador	1468	Triana, Seville, Spain	July 28, 1527	Cuba, New Spain	9.9236	125.0743
Battem, Gerrit	 	Dutch Golden Age painter	1636	Rotterdam	1684	Rotterdam	51.92508	4.46946
Bayer, Johann	 	German astronomer	1572	Rain, Swabia|Rain	March 7, 1625	Augsburg	62.5017	32.05433
Bayinnaung Kyawhtin Nawrahta	Ye Htut	King of Burma	16 January 1516	Taungoo|Toungoo (Taungoo)	10 November 1581	Bago, Burma|Pegu (Bago)	18.94291	96.43408
Bayle, Pierre	 	French writer and philosopher	18 November 1647	Carla-le-Comte, near Pamiers (Ariège)	28 December 1706	Rotterdam	42.5	1.48333
Baylie, Richard	 	Dean and academic administrator	1585	England	27 July 1667	England	38	-61
Baylon, Paschal	 	Spanish friar	24 May 1540	Torrehermosa, Aragon	17 May 1592		41.23767	-2.128
Bazan, Alvaro de	 	Spanish admiral	December 12, 1526	Granada, Spain	February 9, 1588	Lisbon, Kingdom of Portugal|Portugal	-23.53902	-50.59682
Bazzani, Giuseppe	 	Italian painter	23 September 1690	Mantua	17 August 1769	Mantua	41.31248	-81.24609
Beatrice of Silva	Saint Beatrice of Silva	Catholic saint	1424	Ceuta, Kingdom of Portugal	August 9, 1492	Toledo, Spain	35.89824	-5.28073
Beatrice	 	Flemish Cistercian nun	1200	Tienen	1268		50.80744	4.9378
Beauchamp, Pierre	Beauchamps, Pierre; Beauchamp, &quot;Charles&quot;; Beauchamp, &quot;Charles-Louis&quot;	French choreographer, dancer and composer	30 October 1631	Versailles (city)|Versailles (Yvelines)	February 1705	Paris	42.5	1.48333
Beaufort, Henry	 	Lord Chancellor of England; Bishop of Lincoln; Bishop of Winchester	1375	Château de Beaufort, Anjou, France	11 April 1447	Wolvesey Castle, Winchester, Hampshire, England	45.34832	4.88635
Beaufort, Margaret, Lady	 	Mother of King Henry VII	31 May 1443 or 1441	Bletsoe Castle, Bedfordshire	29 June 1509	Westminster Abbey, Greater London|London	52	-0.5
Beaume, Henry de	Balma, Henry de	Franciscan friar and theologian	1367	Geneva, History of Geneva	23 February 1439	Besançon, County of Burgundy, Holy Roman Empire	-20.56759	29.2552
Beaumont, Francis	 	English dramatist	1584	Grace-Dieu, Thringstone, Leicestershire, England	6 March 1616	London	52.75001	-1.3678
Beaumont, John	 	English poet	1583	Thringstone, Leicestershire	19 April 1627		52.75001	-1.3678
Beccafumi, Domenico di Pace	 	Italian painter	1486	Montaperti, Italy	May 18, 1551	Siena, Italy	15.337	44.20654
Becher, Johann Joachim	 	German chemist	6 May 1635	Speyer, Holy Roman Empire	1682	London, England	49.32277	8.42791
Beck, David	David Beek	Dutch portrait painter	May 25, 1621	Delft	December 20, 1656	The Hague	52.00667	4.35556
Becka, Tom	 	Radio talk show host, author, speaker	Nov 18th	Cleveland Ohio	 		42.5	1.48333
Bedingfeld, Frances	 	English Roman Catholic nun; Sister of Loreto 	1616	Norfolk, Kingdom of England	1704	Munich, Electorate of Bavaria, Holy Roman EmpireBelin, Albert	 	French bishop
Bedle, William	 	English cricketer	22 February 1679	Bromley, Kent	3 June 1768	Dartford, Kent	-32	-35
Beeckman, Isaac	 	Dutch philosopher and scientist	10 December 1588	Middelburg	19 May 1637	Dordrecht	-25.77507	29.46482
Beg, Ulugh	 	Timurid ruler	March 22, 1394	Sultaniyeh	October 27, 1449		42.5	1.58333
Begum, Gauhara	 	UMughal noblewoman	June 17, 1631	Agra, India	1706	Delhi, India	8.98056	-72.17278
Behaim, Martin	Behem, Martin	German navigator and geographer to the King of Portugal	6 October 1459	Nuremberg	29 July 1507	Lisbon	49.49575	11.07576
Behn, Aphra	 	Author	bapt. 14 July 1640	England	16 April 1689		38	-61
Beijeren, Abraham van	 	Dutch painter	1620	The Hague	1690		52.08019	4.32535
Belcher, Jonathan	 	Colonial governor of Massachusetts, New Hampshire, and New Jersey	8 January 1682	Cambridge, Massachusetts	31 August 1757	Elizabeth, New Jersey|Elizabethtown, New Jersey	-18.02599	31.6763
Bell, Johann Adam Schall Von	 	German Jesuit active in China	1 May 1592	Cologne, Holy Roman Empire	15 August 1666	Beijing, Qing Empire	45.58138	9.94136
Bellamy, Samuel	Black Sam; Black Bellamy; Bellamy, Black; Bellamy, Sam	English pirate	February 23, 1689	Hittisleigh, Devon, England	April 26, 1717	at sea, near Wellfleet, Massachusetts	50.73333	-3.8
Bellarmine, Robert	Bellarmino, Roberto Francesco Romolo 	Catholic cardinal, saint, and Doctor of the Church	4 October 1542	Montepulciano, Italy	17 September 1621	Rome, ItalyBell, Bert	Bell, De Benneville	American football player, coach, executive
Bellasio, Paolo	 	Italian composer and organist	20 May 1554	Verona	10 July 1594	Rome	-17.27816	31.07613
Bellingham, Richard	 	Governor of the Massachusetts Bay Colony	1592	Boston, Lincolnshire, England	7 December 1672	Boston, Massachusetts	52.97633	-0.02664
Bellomont, Richard Coote, 1st Earl Of	 	Colonial governor of New York, New Hampshire, and Massachusetts	1636	Ireland	5 March 1700/1	New York City	55	-12.66667
Belmont, Francois Vachon de	 	Catholic bishop	3 April 1645	Dauphiné, France	22 May 1732	Montreal, Canada, New France	45	5.25
Belon, Pierre	 	naturalist, botanist, antiquary	1517	Cérans-Foulletourte	1564	Paris	47.82651	0.07724
Benedict 10	Giovanni Mincius	Italian anti-pope	1000s	Papal States	1073/1080	Rome, Papal States	42.5	1.48333
Benedict 13	 	Pope	2 February 1650	Gravina in Puglia, Kingdom of Naples	21 February 1730	Rome, Papal State	40.81972	16.42278
Benedict 14	 	Catholic Pope	31 March 1675	Bologna, Papal State	3 May 1758	Rome, Papal State	44.50657	11.35041
Benedict Ii, Pope	 	Pope	635	Rome, Byzantine Empire	8 May 0685	Rome, Byzantine Empire. Location of tomb has since been lost.	41.89474	12.4839
Benedict Of Aniane	 	Benedictine monk and reformer	747	France	11 February 0821		15.33712	44.2012
Benedict The Moor	Manasseri, Benedetto	Italian Franciscan	1526	San Fratello, province of Messina|Messina, Sicily, Crown of Aragon	April 4, 1589	Palermo, Sicily, Crown of Aragon	42.56667	1.48333
Benedict XI, Pope	Boccasini, Nicholas	antipope	1240	Treviso, Italy	7 July 1304	Perugia, Italy	-25.42746	-48.87754
Benedict XII, Pope	Fournier, Jacques	Pope	1280	Saverdun, County of Foix	25 April 1342	Avignon, Papal States	43.23526	1.57398
Benedict XIII, Antipope	de Luna, Pedro Martínez (birth name); de Luna y Pérez de Gotor, Pedro Martínez (full name); Benedet XIII, antipapa (Aragonese); Benedicto XIII, antipapa (Spanish); Benoît XIII, antipape (French); Benedictus XIII, antipapa (Latin); Papa Luna (nickname)	Antipope in Avignon	1328	Illueca, Kingdom of Aragon	23 May 1423	Peñíscola, Kingdom of Aragon	41.53818	-1.62747
Benedict of Nursia	 	Italian monk	480	Norcia (Umbria, Italy)	21 March 543 or 547	Monte Cassino	42.56667	1.68333
Benevoli, Orazio	Benevolo, Orazio	Italian composer	19 April 1605	Rome	17 June 1672	Rome	41.89474	12.4839
Benizi, Philip	 	Servite Prior General	August 15, 1233	Oltrarno, city-state of Florence, Tuscany, (modern-day Italy)	August 22, 1285	Todi, Province of Perugia, Umbria, Italy	42.55294	1.48764
Benno	 	Roman Catholic bishop	1010	Hildesheim, Germany	16 June 1106	Meissen, Saxony	52.1531	9.95553
Benzine, Reda	 	Athletics (sport) competitor	19 April 	algeria	19/04	hydra(alger)	42.5	1.48333
Berchmans, John	Berchmans, Jan	Catholic jesuit saint	13 March 1599	Diest, Belgium	13 August 1621	Rome, Italy	50.99983	5.07575
Berenguer, Ramon, Count Of Provenceiv	 	Count of Provence	1195	Unknown	19 August 1245	Aix-en-Provence	25.85106	88.24131
Bering, Vitus	 	Danish explorer	5 August 1681	Horsens, Denmark	8 December 1741	Bering Island, Russia	55.86066	9.85034
Berkeley, George	Bishop Berkeley	philosopher	12 March 1685	County Kilkenny	14 January 1753	Oxford	42.5	1.58333
Berkeley, Thomas de, 1st Baron Berkeley	The Wise	English baron and diplomat	1245	Berkeley Castle, Gloucestershire, England	23 July 1321	Berkeley	-34.77609	138.71788
Berlichingen, Gotz von	 	German feudal knight and soldier of fortune	1480	Jagsthausen, Württemberg	1562		49.31056	9.46833
Bermudez, Juan de	 	Spanish explorer	1449	Palos de la Frontera, Huelva, Crown of Castile	 1570	unknown	37.23457	-6.89471
Bernard Of Menthon	1020	Priest and founder	1020	Château de Menthon, County of Savoy, Kingdom of Arles	June 1081	Novara, Holy Roman Empire	42.5	1.48333
Bernard Of Vienne	 	Bishop of Vienne	778	Lyon, France	842	Vienne, France	39.0204	-119.1892
Bernard of Clairvaux	 	French abbot, theologian	1090	Fontaine-lès-Dijon, France	21 August 1153	Ville-sous-la-Ferté|Clairvaux, France	47.34238	5.02007
Berners, Juliana	 	English prioress and author	1388	England	15th century	England	38	-61
Bernhard I of Saxe-Meiningen, Duke	 	Duke of Saxe-Meiningen (1675-1706)	10 September 1649	Gotha (town)|Gotha	27 April 1706	Meiningen	30.06597	70.24194
Bernhard Of Saxe-Weimar	 	German general 	16 August 1604	Weimar, Duchy of Saxe-Weimar	18 July 1639	Neuenburg am Rhein	-31.885	115.9292
Bernini, Gian Lorenzo	 	Italian painter	7 December 1598	Naples, Kingdom of Naples, in present-day Italy	28 November 1680	Rome, Papal States, in present-day Italy	34.97785	-97.7142
Bernoulli, Jacob	 	Swiss cleric and mathematician	27 December 1654	Basel, Switzerland	16 August 1705	Basel, Switzerland	47.58958	7.52991
Bernoulli, Johann	John, Jean	Mathematician	27 July 1667	Basel, Switzerland	1 January 1748	Basel, Switzerland	47.58958	7.52991
Bernward Of Hildesheim	 	Bishop of Hildesheim	960	Duchy of Saxony	20 November 1022		42.5	1.48333
Berry, John, Duke Of	 	French duke	30 November 1340	Château de Vincennes	15 June 1416	Paris	42.5	1.48333
Bertin	 	Abbot and saint	615	Coutances	709		49.06667	-1.45
Bertolotti, Bernardino	 	Italian instrumentalist and composer	March 26, 1547	Salò Italy	after 1609	Rome Italy	42.5	1.48333
Bestuzhev-Ryumin, Mikhail Petrovich	 	Russian diplomat	1688	Moscow	1760	Paris	55.75222	37.61556
Betancur, Peter Of Saint Joseph	 	Spanish missionary and saint	March 21, 1626	Vilaflor, Tenerife	April 25, 1667	Antigua Guatemala, Guatemala	28.15623	-16.63592
Bethlen, Gabriel	 	Hungarian Protestant military leader	1580-11-15	Marosillye, now Ilia, Hunedoara, Romania	1629-11-15	Gyulafehérvár, now Alba Iulia, Romania	42.56667	1.48333
Beza, Theodore	 	French theologian	June 24, 1519	Vezelay, Burgundy (region)|Burgundy, Kingdom of France	October 13, 1605	Geneva, Old Swiss Confederacy|Switzerland	42.56667	1.48333
Bharadwaj, Nitish	 	Indian actor	June 2	Mumbai, India	 		18.92188	72.83468
Bibaculus, Marcus Furius	 	Roman Poet	103 BC	Cremona	 		-25.91141	24.40751
Biber, Heinrich Ignaz Franz	Biber von Bibern, Heinrich Ignaz Franz	Bohemian-Austrian composer and violinist	12 August 1644	Wartenberg (now Stráž pod Ralskem, Czech Republic)	3 May 1704	Salzburg	42.56667	1.68333
Biel, Gabriel	 	German canon regular and scholar	1420-1425	Speyer, Bishopric of Speyer, Holy Roman Empire	7 December 1495	Einseideln, Canton of Schwyz, Old Swiss Confederacy	49.32277	8.42791
Biener, Wilheim	 	Austrian lawyer and politician	1590	Lauchheim, Baden-Württemberg	July 17, 1651	Rattenburg	48.87172	10.24608
Bigod, Hugh 1st Earl of Norfolk	 	English nobleman	1095	 Belvoir Castle	1177	 Palestine	42.5	1.58333
Bilney, Thomas	 	England|English martyr	1495	 England	19 August 1531	 Lollards Pit, Norwich, Kingdom of England|England	38	-61
Binchois, Gilles	Binche, Gilles de; Bins, Gilles de	Franco-Flemish composer	1400	Mons	20 September 1460	Soignies	50.45413	3.95229
Birinus	 	British bishop	600	France	3 December 0649	Dorchester, Oxfordshire, England	15.33712	44.2012
Biron, Ernst Johann Von	 	Russian statesman of Baltic German descent	1690	 Kalnciems, Semigallia	1772	Mittau, Jelgava.	56.80111	23.60972
Biscop, Benedict	 	Anglo-Saxon abbot	628	Northumbria	12 January 0690	Monkwearmouth-Jarrow Priory|St Peter's, Wearmouth	55	-2.5
Bissot, Jean Baptiste	 	French-Canadian explorer and soldier	19 January 1668	Quebec, Canada	1719	Near present-day Fort Wayne, Indiana	-33.7818	151.1512
Blackmore, Sir Richard	 	English poet and physician	22 January 1654	Corsham, Wiltshire	9 October 1729	Boxted, Essex	51.43433	-2.18437
Blaeu, Willem Janszoon	 	Dutch cartographer	1571	Holland, Seventeen Provinces	21 October 1638	Amsterdam, Holland, Dutch Republic	-20.32431	32.55313
Blagrave, Daniel	 	English politician	1603	Berkshire, England	1668	Aachen, Germany	42.2075	-73.3464
Blahoslav, Jan	 	Czech writer	20 February 1523	Přerov, Moravia	24 November 1571	Moravský Krumlov	49.4258	17.4047
Blair, J. D.	James Blair	Musician	March 16	Nellis AFB, Las Vegas, NV	 		37.61667	-116.26417
Blair, James	 	Scottish-born clergyman, missionary, educator	1656	Banffshire, Scotlan	18 April 1743	Jamestown, Virginia	42.5	1.58333
Blake, Robert	 	Military commander	1599	Bridgwater	17 August 1657	At sea off Plymouth	51.12837	-3.00356
Blanche of Navarre	Blanca Garcés de Pamplona (Spanish)	Wife of King Sancho III of Castile	after 1133	Laguardia, Álava|Laguardia	August 12, 1156		42.5546	-2.58528
Blathmac, Saint	 	Irish monk	750	Ireland	835	Iona	55	-12.66667
Bloemaert, Abraham	 	Dutch painter	1566	Gorinchem	27 January 1651	Utrecht	51.83873	4.97712
Blommaert, Samuel	 	Flemish/Dutch merchant 	1583	Antwerp, Belgium	1654		42.2009	-85.82171
Blood, Thomas	 	Ireland|Irish-born Colonel best known for attempting to steal the Crown Jewels of the United Kingdom|Crown Jewels	1618	County Meath, Ireland	23 August 1680	Westminster, London, England	55	-12.66667
Blount, Thomas	 	English antiquarian and lexicographer	1618	Bordesley, Worcestershire|Bordesley, Tardebigge, Worcestershire, Kingdom of England|England	December 26, 1679	Orleton, Herefordshire, England	52.8	-2
Blow, John	 	English composer	bapt. 23 February 1649	Newark-on-Trent, Nottinghamshire	1 October 1708	Westminster, London	53.16667	-1
Bobola, Andrew 	Bobola, Andrzej 	Jesuit missionary and martyr, known as the Apostle of Lithuania 	1591	Sandomierz Voivodeship, Lesser Poland, Crown of the Kingdom of Poland, Polish–Lithuanian Commonwealth.	16 May 1657	Ivanava, Grand Duchy of Lithuania, Polish–Lithuanian Commonwealth	42.56667	1.68333
Boccaccio, Giovanni	 	Writer, humanist	16 June 1313	Tuscany	21 December 1375	Certaldo	42.5	1.58333
Boccone, Paolo	Boccone, Silvio	Italian Botanist	24 April 1633	Palermo	22 December 1704	Altofonte	-33.8	-55.98333
Bochart, Samuel	 	French Protestant theologian	30 May 1599	Rouen	16 May 1667	Caen	-35.78333	-56
Bock, Hieronymus	 	German botanist	1498	Heidesbach	21 February 1554	Harnbach	42.5	1.48333
Bocquet, Mlle	Anne Bocquet or Marguerite Bocquet	Lutenist and composer	early 17th century	Paris, France (?)	after 1660	Paris, France	48.86694	2.78207
Bocskay, Stephen	Bocskai, István	 	1 January 1557	Kolozsvár, Transylvania (present-day Cluj-Napoca, Romania)	29 December 1606	Košice|Kassa, Upper Hungary (present-day Košice|Kosice, Slovakia)	1 January 1557	29 December 1606
Bodley, Thomas	 	English diplomat and scholar, founder of the Bodleian Library, Oxford	March 2, 1545	Exeter, Kingdom of England|England	January 28, 1613		-17.79685	31.90034
Bodmer, Johann Jakob	 	Switzerland|Swiss-German author, academic, critic and poet	19 July 1698	Greifensee, near Zürich	2 January 1783	Zürich	47.3484	8.68124
Boel, Pieter	 	painter	1626	Antwerp	1674	Paris	42.2009	-85.82171
Boethius	Boëthius, Anicius Manlius Severinus	philosopher	480	Rome	October 23, 524	Pavia	41.89474	12.4839
Boffrand, Germain	 	French architect	16 May 1667	Nantes, France	19 March 1754	Paris, France	19.43333	-71.76667
Bogdan III The One Eyed	 	List of Moldavian rulers|Voivode of Moldavia	1470/1471	Huşi, Romania	1517		46.67361	28.05944
Bogdani, Pjeter	 	Roman Catholic archbishop	1630	Gur i Hasit, Ottoman Empire	1689	Pristina, Ottoman Empire, (now Kosovo)	42.5	1.48333
Bogislaw XIV, Duke of Pomerania	Bogusław XIV (Polish); Bògùsłôw XIV (Kashubian)	Duke of Pomerania-Rügenwalde (1617-1725), then all of Pomerania (1625-1637)	31 March 1580	Barth, Germany|Barth	10 March 1637	Stettin	18	-63
Bohemia, Elisabeth Of	 	 Queen consort of Hungary, Bohemia and Germany, and Duchess consort of Austria	7 October 1409	Visegrád, Hungary	19 December 1442	Győr, Hungary	47.78526	18.9709
Bohm, Georg	 	German composer and organist	2 September 1661	Hohenkirchen, Thuringia	18 May 1733		53.6626	7.9174
Boileau-Despreaux, Nicolas	 	French poet	1 November 1636	Paris, France	13 March 1711	Paris, France	48.86694	2.78207
Bolesław I Chrobry	 	King of Poland	967	Poznań	17 June 1025	Kraków?	52.4079	16.91886
Boleyn, Anne	 	Second wife of Henry VIII of England|King Henry VIII, mother of Elizabeth I of England|Queen Elizabeth I	1504	Blickling Hall/ Hever Castle, England	19 May 1536	Tower of London	38	-61
Bolingbroke, Henry Saint John, 1st Viscount	 	English politician and Viscount	16 September 1678	Battersea, Surrey&lt;br/&gt;Kingdom of England|England	12 December 1751	Battersea, London&lt;br/&gt;Kingdom of Great Britain|Great Britain	-33.8318	151.1179
Bolland, Jean	 	Jesuit hagiographer	18 August 1596	Julémont	12 September 1665	Antwerp	50.68553	5.771
Bona, Giovanni Leonardo di	 	Italian chess player	1542	Cutro, Calabria, Italy	1587		39.03529	16.98191
Bonanni, Filippo	 	Jesuit priest and scientist	1638	Rome, Italy	1723	Rome	41.89474	12.4839
Bonaventure	 	Italian cardinal	1221	Bagnoregio, Province of Viterbo, Latium, Papal States	15 July 1274	Lyon, Lyonnais, Kingdom of Arles	42.62903	12.08836
Bonde, Gustaf	 	Swedish politician	February 1, 1620	Pargas, Finland	May 25, 1667	Hamburg	60.14413	21.75304
Bonfrere, Jacques	 	Jesuit priest, biblical scholar	12 April 1573	Dinant	9 May 1642	Tournai	50.25807	4.91166
Boniface 08	 	Italian pope	1235	Anagni, Papal States, Holy Roman Empire	11 October 1303	Rome, Papal States	41.74472	13.15269
Boniface IV, Pope	Bonifatius IV (Latin); Boniface, Saint	Pope	550	Valeria (province)|Valeria, Italy	25 May 615	Rome, Italy	-17.54809	31.04594
Boniface IX	 	Pope Pope	1356	Naples, Kingdom of Naples	1 October 1404	Rome, Papal States	34.97785	-97.7142
Boniface of Brussels	 	Roman Catholic bishop	1183	Brussels	19 February 1260	La Cambre, Brussels	50.8348	4.33653
Bonini, Severo	 	Italian composer, organist	23 December 1582	Florence	5 December 1663	Florence	-21.87344	30.89136
Bonner, Edmund	Boner, Edmund	Bishop of London, was an England|English bishop	1500	Hanley, Worcestershire	5 September 1569	the Marshalsea	-32.41794	116.5726
Bonnet, Stede	The Gentleman Pirate (nickname)	Barbadian pirate	1688	Bridgetown, Barbados	10 December 1718	Charleston, South Carolina	13.1	-59.61667
Bononcini, Giovanni Battista	 	Italian composer	18 July 1670	Modena, Italy	9 July 1747	Vienna	45.54991	-99.6465
Booth, Lawrence	Booth, Laurence; Bothe, Lawrence; Bothe, Laurence	Lord Privy Seal; Lord Chancellor; Bishop of Durham; Archbishop of York	1420	Barton, Lancashire	19 May 1480	Southwell, Nottinghamshire	17.21667	-88.95
Borandukht	Buran, Poran, Burandokht, Purandokht	Sassanid queen	590	Persia	632		9.8723	-74.31032
Borch, Gerard Ter	 	Dutch painter	1617	Zwolle, Overijssel, Dutch Republic	8 December 1681	Deventer, Overijssel, Dutch Republic	52.5125	6.09444
Bordone, Paris	 	Italian painter	1495	Treviso	1570	Venice	-25.42746	-48.87754
Borelli, Giovanni Alfonso	 	Italian physicist	28 January 1608	Naples	31 December 1679	Rome	34.97785	-97.7142
Borghese, Scipione	 	Catholic cardinal 	1 September 1577	Artena, Italy	2 October 1633	Rome, Italy	41.74142	12.90349
Borgia, Cesare	 	Duke of Urbino and Catholic cardinal	13 September 1475	Rome, Italy	12 March 1507	Viana, Spain	41.89474	12.4839
Borgia, Lucrezia	 	Italian noblewoman	18 April 1480	Subiaco, Italy	24 June 1519	Ferrara	-31.95056	115.8225
Borromeo, Carlo	 	Cardinal Archbishop of Milan	2 October 1538	Arona	3 November 1584	Milan	-9.74008	160.80714
Borromeo, Federico	 	Cardinal Archbishop of Milan	18 August 1564	Milano	22 September 1631	Milano	-31.0012	121.9162
Borromini, Francesco	Castelli, Francesco	Swiss architect	25 September 1599	Bissone	3 August 1667	Rome	45.15756	9.39976
Bossuet, Jacques-Benigne	 	Catholic bishop	September 27, 1627	Dijon, France	April 12, 1704	Paris	7.73333	0.78333
Boston, Thomas	 	Scottish church leader	17 March 1676	Duns, Berwickshire	20 May 1732	Duns, Berwickshire	56.15	15.25
Both, Pieter	 	Dutch colonial governor	1568	Amersfoort, Dutch Republic	6 March 1615	Indian Ocean (near Mauritius)	-26.98333	28.85
Bottger, Johann Friedrich	 	Saxon alchemist	February 4, 1682	Schleiz	March 13, 1719	Dresden	50.6023	11.8038
Bottrigari, Ercole	Hercole Bottrigari, Cavalier Ercole Bottrigari	Italian Renaissance man	1531	Bologna	1612	Bologna (?)	44.50657	11.35041
Boulogne, Valentin De	 	Painter	before 3 January 1591	Coulommiers, Seine-et-Marne|Coulommiers, France	1632		48.838	3.015
Bourbon, Louis Armand Ii De, Prince De Conti	 	Dutch prince	11 October 1695	Palace of Versailles, Versailles (city)|Versailles, France	5 April 1727	Hôtel de Conti, Paris, France	48.80494	2.12131
Bourgeoys, Marguerite	 	French colonist and foundress	17 April 1620	Troyes, Champagne (province)|Champagne, Kingdom of France	12 January 1700	Fort Ville-Marie, New France, French colonial empire|French Empire	48.30358	4.04552
Bower, Archibald	 	Scottish Historian	17 January 1686	Dundee, Scotland	3 September 1766	England	-20.32537	28.54814
Bownas, Samuel	 	Quaker	20 Nov. 1676	Westmorland|Westmoreland, England	 2 April 1753	Bridport	54.5	-2.58333
Boyle, Charles	Orrery, 4th Earl of; Marston, 1st Baron Boyle of	British nobleman	28 July 1674	Chelsea, London	28 August 1731	Westminster, London	51.50378	-0.18928
Brébeuf, Jean De	 	Jesuit missionary and martyr	March 25, 1593	Condé-sur-Vire, Normandy, France	March 16, 1649	Sainte-Marie among the Hurons, near Midland, Ontario, Canada	49.05	-1.03333
Bracciolini, Gian Francesco Poggio	 	Italian scholar, writer, humanist	February 11, 1380	Terranuova Bracciolini	October 30, 1459	Florence	43.55215	11.58843
Brackley, Thomas Egerton, 1st Viscount	 	English politician	1540	Doddlestone, Cheshire, England	15 March 1617	England	-20.39786	29.95288
Braddock, Edward	 	British Army general	1695-01-00	Pertheshire, Scotland	13 July 1755	Battle of Fort Necessity|near Great Meadows, United States	45.28339	-97.91979
Bradford, John	 	English Protestant Reformer and martyr	1510	Manchester, England	1555	London, England	47.55593	-122.54486
Bradford, William	 	Early English-born printer in North America	May 20, 1663	Barwell, Leicestershire, England	May 23, 1752	New York, New York	-33.4824	135.56311
Bradford, William	 	Governor of the Plymouth Colony, author of ''Of Plymouth Plantation''	March 19, 1590	Austerfield, Yorkshire, England	May 9, 1657	Plymouth, Massachusetts|Plymouth, Plymouth Colony	53.44601	-1.00565
Bradley, James	 	British astronomer	1693	Sherborne, Gloucestershire|Sherborne, nr Cheltenham, Gloucestershire, England	13 July 1762	Skiveralls House, Chalford, Gloucestershire, England	50.94599	-2.51776
Bradstreet, Simon	 	Last governor of Massachusetts Bay Colony, husband of poet Anne Bradstreet	March 18, 1603/4	Lincolnshire, England	March 27, 1697	Salem, Massachusetts	53.58333	-0.5
Brady, Nicholas	 	Poet, Anglican divine	28 October 1659	Bandon, County Cork, Ireland	20 May 1726		44.58598	-94.8127
Brahe, Per	 	Swedish noble	18 February 1602	Rydboholm Castle, Uppland	2 September 1680	Bogesund Palace, Sweden	42.56667	1.68333
Brahe, Tycho	 	Danish astronomer	1546-12-14	Knutstorp Castle, Scania	1601-10-24	Prague	42.56667	1.68333
Brahmadeva	buddha	buddha	1060	india	1130	india	23.27967	90.13101
Braithwaite, Leonard Austin	 	Canadian politician	October 23,	Toronto, Ontario	March 28, 2012	Toronto, Ontario	43.66219	-79.3942
Bramante, Donato	 	Italian architect	1444	Fermignano, Italy	11 April 1514	Rome	43.68396	12.64405
Bramer, Leonaert	 	Dutch painter	24 December 1596	Delft	10 February 1674	Delft	52.00667	4.35556
Branca, Giovanni	 	Italian architect and engineer	22 April 1571	Sant'Angelo in Lizzola, Italy	24 January 1645	Loreto (AN)|Loreto	43.82696	12.80076
Brancoveanu, Constantin	 	Prince of Wallachia	1654	Brâncoveni, Wallachia	August 15, 1714	Constantinople, Ottoman Empire	44.31667	24.3
Brandl, Petr	 	Czech artist	October 24, 1668	Prague, Bohemia	September 24, 1735	Kutná Hora, Bohemia	50.10083	14.26
Brandt, George	 	Discoverer of cobalt	26 June 1694	Skinnskatteberg, Sweden	29 April 1768	Stockholm, Sweden	15.34237	44.1815
Bray, Thomas	 	English clergyman with Maryland connection	1658	Marton, Shropshire, England	15 February 1730		-40.08333	175.38333
Braziliano, Roche	 	Dutch buccaneer	1630	Groningen (city)|Groningen, The Netherlands	 		-30.11278	26.58498
Breaux, &quot;D-D&quot;	 	Women's collegiate gymnastics coach	19 January	Donaldsonville, LA	 		34.0421	-118.267
Brendan of Clonfert	Brendan, Saint Brendan of Clonfert,Bréanainn of Clonfert	The Navigator	484	Fenit, Tralee, County Kerry, Ireland	577	Annaghdown, County Galway, Connacht, Ireland	52.29167	-9.86667
Brenz, Johannes	Johann	German church reformer	June 24, 1499	Weil der Stadt, Germany	September 11, 1570	Stuttgart, Germany	48.75145	8.86889
Brereton, William	 	Groom of the Privy Chamber of Henry VIII of England	1487	Cheshire	17 May 1536	Tower Hill, London	-20.39786	29.95288
Brestisson, Sigmundur	 	First Faroese christian	961	Skúvoy, Faroe Islands	1005	Sandvík, Faroe Islands	61.77085	-6.79916
Brettingham, Matthew	Brettingham, Matthew, the Elder	English architect	1699	Norwich, Norfolk, England	19 August 1769	Norwich, Norfolk, England	-29.03333	167.95
Breu the Elder, Jörg	Breu the Elder, Joerg;Breu, Jörg;Breu, Georg;Preu, Jörg (der Ältere);Prew, Jörg (der Ältere);Breü, Jörg (der Ältere);Jörg Breu d. Ä.	German Renaissance painter	1475/1480	Augsburg	1537	Augsburg	48.50011	-96.71487
Brewster, William	 	Religious emigrant to North America and leader there	24 January 1566	Scrooby, Nottinghamshire or Doncaster, Yorkshire, England	1644	Duxbury, Massachusetts, USA	42.56667	1.48333
Briant, Alexander	 	Jesuit martyr	17 August 1556	Somerset, England	1 December 1581	Tyburn, London, England	-17.85098	31.90482
Bridel, Bedřich	 	Czech Baroque composer	1619	Vysoké Mýto	15 October 1680	Kutná Hora	42.5	1.58333
Bridget Of Sweden	 	Swedish saint	1303	Uppland, Sweden	23 July 1373	Rome, Papal States	15.34237	44.1815
Brocadelli, Lucia	Lucy of Narni	Dominican tertiary and stigmatic	13 December 1476	Narni, Umbria, Papal States	15 November 1544	Ferrara, Duchy of Ferrara	42.51713	12.52307
Brokoff, Jan	 	German sculptor	23 June 1652	Spišská Sobota, now part of Poprad City	28 December 1718	Prague	42.5	1.48333
Bromley, Thomas	 	English lord chancellor	1530	Staffordshire, Kingdom of England|England	11 April 1587		52.83333	-2
Bronster, Margery	 	American politician	December 12	Englewood, NJ	 		45.25632	-102.11042
Bronzino	Agnolo di Cosimo (Full name), Il Bronzino	Italian painter	November 17, 1503	Florence	November 23, 1572	Florence	-21.87344	30.89136
Brooke, Fulke Greville, 1st Baron	 	English politician	3 October 1554	Alcester, Warwickshire	30 September 1628	Warwick, Warwickshire	43.04044	-96.62806
Brooks, James	Brookes, James	Bishop and academic administrator	May 1512	Hampshire, England	1560	England	43.13575	-70.93162
Brosse, Jean de	 	Marshal of France	1375	Huriel, France	1433	Boussac, France	46.37368	2.47793
Brouwer, Adriaen	Adriaen de Brauwer	painter	1605	Oudenaarde	January 1638	Antwerp	50.8567	3.62474
Brown, Dave	Brown, David Steven	American football player and coach	January 16, 195	Akron, Ohio	January 10, 2006	Lubbock, Texas	40.16054	-103.21438
Browne, Richard, 1st Baronet	 	Lord Mayor of London, 1660	1610	Wokingham, Berkshire	24 September 1669		-21.41734	143.59795
Browne, Thomas, Sir	Browne, Thomas	English author	19 October 1605	St Michael, Cheapside, London, Kingdom of England|England	19 October 1682	Norfolk, England	-34.97713	138.70825
Bruce, Jacob	 	Russian noble and scientist	1669	Moscow, Russia	April 30, 1735		55.75222	37.61556
Bruce, William	 	Scottish architect	1630	Blairhall, Fife, Scotland	1 January 1710		-9.31667	32.8
Brucker, Johann Jakob	 	German historian of philosophy	22 January 1696	Augsburg	26 November 1770	Augsburg	48.50011	-96.71487
Bruders, Patrick	 	American musician	August 24	El Paso, TX	 		8.25	-67.78333
Brueghel, Abraham	Breugel, Ryngraaf	Flemish Baroque painter	28 November 1631	Antwerp	1690	Italy	42.2009	-85.82171
Brueghel, Jan (The Elder)	 	Dutch painter	1568	Brussels	13 January 1625	Antwerp	50.8348	4.33653
Brugman, John	 	German Franciscan friar, preacher and writer	14th century	Electorate of Cologne, Holy Roman Empire	1473	Nijmegen, Duchy of Guelders, Holy Roman Empire	42.5	1.48333
Bruhns, Nicolaus	Bruhns, Nikolaus; Bruhns, Nicholas	organist and composer	1665	Schwabstedt	29 March 1697	Husum	54.39705	9.18646
Brun, Charles Le	 	French painter	24 February 1619	Paris	22 February 1690	Paris	48.86694	2.78207
Brunelleschi, Filippo	Filippo Brunellesco	Italian architect, artist and engineer	1377	Florence, Italy	April 15, 1446	''unknown''	-21.87344	30.89136
Bruno Of Querfurt	 	Missionary bishop and martyr	970	Querfurt, Saxony-Anhalt	February 14, 1009		51.3801	11.6005
Bruno of Würzburg	Bruno of Carinthia	Chancellor of Italy and Prince-Bishop of Würzburg	1005	Duchy of Carinthia|Carinthia	27 May 1045	Persenbeug, Austria	42.56667	1.68333
Bruno, Giordano	Filippo Giordano Bruno	Italy|Italian philosopher, priest, cosmologist, and occultist	1548	Nola	February 17, 1600	Rome	37.66472	40.88972
Brutus, Marcus Junius	 	Roman politician	June 85 BC	Rome, Italia (Roman Empire)|Italia	October 23, 42 BC 	Philippi, Macedonia (Roman province)|Macedonia	41.89474	12.4839
Bry, Theodor De	 	editor, engraver, goldsmith	1528	Liège	27 March 1598	Frankfurt am Main	50.62515	5.56595
Bucer, Martin	Butzer, Martin	Protestant reformer	11 November 1491	Sélestat, France (Holy Roman Empire)	28 February 1551	Cambridge, England	48.26667	7.45
Buchan, John Stewart, Earl of	Batman	 	1381	Scotland	1424	Verneuil-sur-Avre, France	45.28339	-97.91979
Buck, George	Buc, George	Antiquarian	1560	England	1622	England	38	-61
Bucquoy, Charles Bonaventure de Longueval, Count of	 	military commander	9 January 1571	Arras	10 July 1621	Nové Zámky	41.73583	20.32417
Budgell, Eustace	 	Irish politician	1686	Exeter, Devon	1737	London, England	-17.79685	31.90034
Bull, George	 	Theologian	1634	Wells, Somerset	1710	Brecknock, Powys	13.35	43.6
Bulleh Shah	Abdullah Shah	 	1680	Uch, Undivided India	1757	Kasur, Undivided India	36.66736	71.6975
Bureau, Jean	 	French artillery commander	1390	Semoine, France	5 July 1463		48.67914	4.08879
Burgess, Leroy	 	American music producer	08/20/53	New York City, New York, United States	 		40.71427	-74.00597
Burgh, 4th Countess of Ulster, Elizabeth De	 	Irish countess	6 July 1332	Carrickfergus Castle, Belfast, County Antrim, Ireland	10 December 1363	Dublin, Ireland	54.7	-5.8
Burgh, Edmond De	 	Irish knight	1298-00-00	Ireland	1338-00-00		55	-12.66667
Burgkmair, Hans	 	German artist	1473	Augsburg	1531		48.50011	-96.71487
Burley, Walter	Burlaeus, Gualterus; Gualterus Burlaeus; Burleigh, Walter; Gualterius Burleus Anglicus	English logician	1275	Burley-in-Wharfedale, Yorkshire	1344/1345		-18.3125	32.11264
Burlington, Richard Boyle, 3rd Earl Of	 	English noble	25 April 1694	Yorkshire, Kingdom of England|England	15 December 1753		-18.3125	32.11264
Burnell, Robert	Burnel, Robert	Archbishop-elect of Canterbury; Bishop of Bath and Wells; Bishop-elect of Winchester	1239	Acton Burnell, Shropshire	25 October 1292	Berwick	52.61388	-2.69468
Burnet, Gilbert	 	British bishop	18 September 1643	Edinburgh, Scotland	17 March 1715	St John's Court, Clerkenwell, London	-27.05945	24.71266
Burnet, William	 	Colonial governor of New York, New Jersey, Massachusetts Bay, and New Hampshire	March 1688	The Hague, Netherlands	7 September 1729	Boston, Massachusetts	52.08019	4.32535
Burton, Richard	 	American actor	January 11	Baltimore	 		42.5518	-85.24977
Burton, Robert	 	English scholar	8 February 1577	Lindley, Leicestershire, England	25 January 1640	Oxford, UK	-27.8791	27.91348
Busenbaum, Hermann	 	German Jesuit casuist	19 September 1600	Nottelen	31 January 1668	Münster	42.5	1.48333
Butler, Joseph	 	British bishop	18 May 1692	Wantage	16 June 1752	Bath, Somerset	41.24312	-74.6259
Buytewech, Willem Pietersz	 	Dutch painter	January 1, 1592	Rotterdam	September 23, 1624	Rotterdam	51.92508	4.46946
Buzjani, Abu Al-Wafa	ابوالوفا محمد بن محمد بن یحیی بن اسماعیل بن العباس البوزجانی; Abū al-Wafāʾ Muḥammad ibn Muḥammad ibn Yaḥyā ibn Ismāʿīl ibn al-ʿAbbās al-Būzjānī	Persian mathematician and astronomer	940	Buzhgan	15 July 998	Baghdad	42.5	1.48333
Byrd, William I	 	American politician	1652	Shadwell, London, England	4 December 1704	Westover Plantation|Westover, Charles City County, Virginia, British America	51.53223	-0.04905
Byrom, John	 	Poet, inventor of a shorthand system	1692-02-29	Manchester, England	1763-09-26	Manchester, England	47.55593	-122.54486
Cacella, Estevao	 	Portuguese missionary	1585	Avis Municipality|Aviz, Kingdom of Portugal	1630	Tibet	42.56667	1.68333
Cadamosto, Alvise	 	Explorer	1432	Venice	1488		45.25	13
Caesar, Gaius Julius	Julius Caesar	Roman dictator	12 July 100 BC	Rome, Roman Republic	15 March 44 BC	Rome, Roman Republic	41.89474	12.4839
Cainnech of Aghaboe	St. Canice, St. Caimnech, St. Cainnech, St. Cainnic, St. Canicus, St. Chainnigh, St. Kenneth, St. Kenny	A Saint, priest and abbot who preached across Ireland and Scotland.	515 or 516	Glengiven, County Londonderry, Northern Ireland	600	Aghaboe, Ireland	54.91667	-6.91667
Cajetan, Thomas	 	Catholic cardinal	20 February 1469	Gaeta, Kingdom of Naples	9 August 1534	Rome, Papal States	41.21831	13.56281
Caldara, Antonio	 	Italian composer	1670	Venice, Italy	28 December 1736	Vienna, Austria	45.25	13
Caligula	Germanicus; Gaius Julius Caesar Augustus	Roman Emperor	31 August 12	Antium, Italy	24 January, 41	Roman Empire	15.337	44.20654
Calixtus, Georg	 	German Lutheran theologian	December 14, 1586	Medelbye in Schleswig	March 19, 1656	Helmstedt	42.5	1.48333
Callixtus 3	 	Pope	31 December 1378	Canals, Valencia|Canals, Kingdom of Valencia|Valencia, Crown of Aragon	6 August 1458	Rome, Papal States	43.85165	1.29199
Calungsod, Pedro	 	Filipino Catholic saint 	1654	Ginatilan, Cebu, Philippines	April 2, 1672	Tumon, Guam	9.6	123.35
Calvert, Leonard	 	First governor of Maryland colony	1606	England	June 9, 1647	Province of Maryland|Maryland colony	38	-61
Calvin, John	Calvin, Jean; Cauvin, Jean; Chauvin, Jean	French theologian, founder of Calvinism	10 July 1509	Noyon, Picardy (region)|Picardy, Kingdom of France	27 May 1564	Geneva	61.71102	133.28575
Calvisius, Sethus	Calvisio, Setho; Kalwitz, Seth	German music theorist, composer, chronologer, astronomer, and teacher	21 February 1556	Gorsleben	24 November 1615	Leipzig	51.26667	11.18333
Camões, Luís Vaz de	Camões, Luis Vaz de; Camoens, Luís Vaz de; Camoens, Luis Vaz de; Camões, Luís de; Camoens, Luís de; Camões, Luis de; Camoens, Luis de	Portuguese poet	1524	 Possibly Lisbon, Portugal	10 June 1580	Lisbon	-23.48628	-46.73367
Cambridge, Richard Of Conisburgh, 3rd Earl Of	 	English noble	1375	Conisborough Castle|Conisburgh Castle, Yorkshire	5 August 1415	Southampton, Hampshire	42.56667	1.48333
Camillo Massimo	 	Cardinal and patron of the arts	20 July 1620	Italy	12 September 1677	Rome	15.337	44.20654
Campanus, Johannes Vodnianus	Campanus, Jan Vodňanský; Jan z Vodňan; Campanus-Vodňanský, Jan; Kampánus Vodňanský, Jan; Campanus Vodnianus, Ionnes	Czech humanist, composer, pedagogue, poet and dramatist	27 December 1572	Vodňany, Bohemia	13 December 1622	Prague	41.4135	-96.85072
Campbell, Colen	 	Scottish architect and architectural writer	15 June 1676	Brodie	13 September 1729	London	34.70981	-92.41682
Campeggio, Lorenzo	 	Catholic cardinal	7 November 1474	Milan	19 July 1539	Rome	42.12889	19.5875
Campen, Jacob van	 	Dutch painter	February 2, 1596	Haarlem, Holland, Dutch Republic	September 13, 1657	Amersfoort, Utrecht (province)|Utrecht, Dutch Republic	-30.47462	18.66011
Campion, Edmund	 	English Jesuit priest, martyr and saint	24 January 1540	London, Kingdom of England	1 December 1581	Tyburn, London, Kingdom of England	51.53223	-0.04905
Campion, Thomas	Campian, Thomas	English composer, poet and physician	12 February 1567	London, Kingdom of England|England	1 March 1620	London, England	51.53223	-0.04905
Canaletto	 	Italian painter	17 or 18 October 1697	Venice	19 April 1768	Venice	45.25	13
Candiano, Pietro II	 	Doge of Venice	872	Unknown	939	Unknown	25.85106	88.24131
Canfield, Benet	Fitch, William	 	1562	Little Canfield	1610	Paris	42.5	1.58333
Canini, Giovanni Angelo	 	Italian painter	1617	Rome	1666	Rome	41.89474	12.4839
Cano, Gabriel	 	Royal Governor of Chile	1665-00-00	Mora, Spain|Mora, Spain	November 11, 1733	Santiago, Chile|Santiago, Chile	7.73333	-72.33333
Cantarini, Simone	 	Italian painter	12 April 1612	Pesaro	15 October 1648	Mantua	43.90357	12.89026
Canute Lavard	 	Danish prince	1096	Roskilde, Denmark	7 January 1131	forest of Haraldsted near Ringsted in Zeeland, Denmark.	55.62208	12.07767
Cao, Cao	 	Han Dynasty politician, warlord and vassal king	155	Bozhou, Anhui, China	220	Luoyang, Henan, China	27.37889	109.27778
Capillas, Francisco	 	Spanish Dominican friar, martyr and saint	August 15, 1607	Baquerín de Campos, Province of Palencia, Spain	January 15, 1648	Fu'an, Fujian, China	42.016	-4.78185
Caraboni, Raffaelloe	 	Italian writer	15 December 1456	Urbino, Italy	24 October 1875	Rome	43.72976	12.63555
Caracalla	Lucius Septimius Bassianus; Marcus Aurelius Antoninus	Roman emperor	4 April 188	Lugdunum, Gaul	8 April 217	near Harran	24.77804	88.5236
Caracciolo, Francis	 	Italian Catholic priest	October 13, 1563	Villa Santa Maria, Province of Chieti, Abruzzo|Region of Abruzzo, Kingdom of Naples (modern-day Italy)	June 4, 1608	Agnone, Province of Isernia, Molise|Region of Molise, Kingdom of Italy (medieval)|Kingdom of Italy	41.95243	14.35182
Caravaggio	Caravaggio, Michelangelo Merisi or Amerighi da	Painting	September 29, 1571	Milan	July 18, 1610	Porto Ercole, near Grosseto in Tuscany	42.12889	19.5875
Cardano, Gerolamo	Cardano, Girolamo; Cardan, Jerome; Cardanus, Hieronymus	Italy|Italian Renaissance mathematician, physician, astrologer and gambler	24 September 1501	Pavia	21 September 1576	Rome	10.8	122.51667
Cardinal-Infante Ferdinand	Fernando; Ferdinand von Österreich	Governor of the Habsburg Netherlands, Cardinal Infante, Archbishop of Toledo	16 May 1609 or24 May 1610.	Escorial near Madrid, Spain	9 November 1641	Bitola	17.1859	-89.01033
Cardoso, Manuel	 	Portuguese composer and organist	bapt. 11 December 1566	Fronteira District|Fronteira	24 November 1650	Lisbon	-24.9714	-48.2867
Carew, Thomas	 	England|English poet	1595	West Wickham, Kent, Kingdom of England|England	22 March 1640		51.36667	-0.01667
Carlevarijs, Luca	 	Italian painter	20 January 1663	Udine	12 February 1730	Venice	46.06102	13.23683
Carneades	 	Greek philosopher	214 BC	Cyrene, Libya|Cyrene	129 BC	Athens	-20.32504	28.41616
Caro, Annibale	 	Italian poet and Knight of Malta	June 6, 1507	Civitanova Marche, March of Ancona, Papal States	November 17, 1566	Rome, Papal States	43.30342	13.72038
Caroline Of Ansbach	Queen Caroline	Wife of King George II of Great Britain	1 March 1683	Ansbach, Germany	20 November 1737	St. James's Palace, London	49.3007	10.5692
Caron, Francois	 	French colonial governor	1600	Brussels	April 5, 1673	at sea, near Portugal	50.8348	4.33653
Caroto, Giovanni Francesco	 	Italian painter	1480	Verona	1555	Verona	-17.27816	31.07613
Caroubel, Pierre-Francisque	 	French violinist and composer	August 1549	Cremona	1611	Paris	-25.91141	24.40751
Carpenter, John	John Carpenter, Town Clerk of London	Town Clerk of London, Author of Liber Albus	1372	unknown &amp; bapt. Hereford Cathedral, Hereford, England	1442	London, Middlesex, England	-16.57218	31.13031
Carpentras	Genet, Elzéar; Geneti, Eliziari	French composer	1470	Carpentras	14 June 1548	Avignon	44.05	5.05
Carracci, Agostino	 	Italian painter	16 August 1557	Bologna	22 March 1602	Parma	44.50657	11.35041
Carracci, Annibale	 	Italian painter 	November 3, 1560	Bologna	July 15, 1609		44.50657	11.35041
Carracci, Antonio Marziale	 	Italian painter	1583	Venice, Italy	8 April 1618	Rome, Italy	45.25	13
Carracci, Ludovico	 	Italian painter	21 April 1555	Bologna	13 November 1619	Bologna 	44.50657	11.35041
Carreno De Miranda, Juan	 	Spanish artist	25 March 1614	Avilés, Spain	3 October 1685	Madrid, Spain	43.55473	-5.92483
Carte, Thomas	 	England|English historian	1686	Clifton upon Dunsmore near Rugby, Warwickshire|Rugby, Warwickshire, Kingdom of England|England	April 2, 1754		52.37092	-1.26417
Carter, Robert 01	 	American politician	1663	Corotoman|Corotoman Plantation, Lancaster County, Virginia	4 August 1732	Lancaster County, Virginia	42.5	1.58333
Cartwright, William	 	Dramatist and Clergyman	1 September 1611	Northway, Gloucestershire, England	29 November 1643	Oxford, England	-34.77609	138.71788
Carver, John	 	Mayflower passenger and New World colonist	1576	Nottinghamshire, England	1621	Massachusetts Bay Colony	53.16667	-1
Casa, Giovanni Della	 	Roman Catholic archbishop	28 June 1503	Florence or Borgo San Lorenzo	14 November 1556	Rome	42.5	1.48333
Casalanctius, Joseph	 	Spanish priest and founder of Piarists	September 11, 1557	Peralta de la Sal, Kingdom of Aragon, Crown of Aragon	August 25, 1648	Rome, Papal States	41.99242	0.3862
Cascia, Rita Of	 	Italian Augustinian nun	1381	itRoccaporena|Roccaporena, Province of Perugia|Perugia, Umbria, Italy	May 22, 1457	Cascia, Perugia, Umbria, Italy	43.09591	12.51322
Casimir, Margrave of Brandenburg-Bayreuth	Kasimir von Brandenburg-Kulmbach (German)	Margrave of Bayreuth	27 December 1481	Ansbach	21 September 1527	Buda	49.3007	10.5692
Caslon, William	 	English typographer and gunsmith	1692	Cradley, Worcestershire	January 23, 1766	London, England	52.8	-2
Cassian, John	 	Christian monk and theologian	360	Scythia Minor (now Dobruja, Bulgaria)	435	Marseille, France	42.56667	1.68333
Cassini, Giovanni Domenico	 	Astronomer, discovered Saturn moons and Great Red Spot of Jupiter	1625-6-8	Perinaldo	1712-09-14	Paris	43.86702	7.66954
Cassini, Jacques	 	French astronomer	18 February 1677	Paris Observatory	16 April 1756	Thury-en-Valois|Thury	42.5	1.48333
Castiglione	 	Italian painter	23 March 1609	Genoa	1664	Mantua	40.17438	-82.89748
Castiglione, Giuseppe	 	Italian Jesuit lay brother, missionary and painter 	July 19, 1688	Milan, Duchy of Milan	July 17, 1766	Beijing, China	42.12889	19.5875
Castile, Maria of	 	Queen consort of Aragon and Naples	14 September 1401	Segovia	7 September 1458	Valencia, Spain|Valencia	8.30732	-68.89893
Castro, Martim Afonso De	 	Portuguese colonial administrator	1560	Kingdom of Portugal	June 3, 1607	Malacca	42.5	1.48333
Catesby, Robert	 	English conspirator	1572	Warwickshire	8 November 1605	Holbeach House, Staffordshire, England	52.33333	-1.58333
